stop_id,stop_name,stop_lat,stop_lon,location_type,parent_station
"099520","Misileo,1","44.1604136196311","11.5877438777798","0",""
"099530","Misileo,Fr.3a","44.1609442595836","11.5881061619645","0",""
"099560","Sp.306,Km 29,6","44.1554858014514","11.5848156013224","0",""
"099570","Sp.306,Km 29,6","44.1557525131551","11.5850204161691","0",""
"099600","Badia Susinana","44.1423504273304","11.5753078315577","0",""
"099610","Badia Susinana","44.1425349893007","11.5755738790015","0",""
"099640","Badia Croce","44.1355865359707","11.5578805599407","0",""
"099650","Badia Croce","44.1352706750785","11.5583696608651","0",""
"099680","Delle Acque","44.1170706150175","11.5518237886714","0",""
"099690","Sp.306,Fr.19","44.116508808609","11.5515945930246","0",""
"099720","Palazzuolo","44.1134783595794","11.5475779354571","0",""
"099730","Palazzuolo","44.1133737905467","11.547551555324","0",""
"099780","Valdoniche","44.111965250044","11.5420470924602","0",""
"099790","Valdoniche","44.1119655898246","11.5423333071916","0",""
"099820","Mantigno","44.1084780123371","11.5352741039571","0",""
"099830","Caseificio","44.1079456851766","11.5347884947527","0",""
"099840","Quadalto,Fr.21","44.1068257528809","11.5330876331013","0",""
"099850","Quadalto,27","44.1070438076518","11.5335663967639","0",""
"099860","Santuario","44.1059480207946","11.5316352036404","0",""
"592000","Autostazione","44.3574593253137","11.7172647496565","0",""
"592010","Autostazione","44.3573658245202","11.7174862908872","0",""
"592040","Selice,Fr.191","44.3604202021355","11.7228857279921","0",""
"592050","Selice-Poiano","44.359888848365","11.7227554598577","0",""
"592060","De Amicis,Fr.85","44.3536645564942","11.7205716535695","0",""
"592070","De Amicis,89","44.3538494415674","11.7205837489899","0",""
"592080","Pisacane,47","44.3494417421402","11.7236284508939","0",""
"592090","Pisacane,78a","44.3502034383128","11.7227481501554","0",""
"592100","Selice-Einaudi","44.3675565862541","11.7282916520588","0",""
"592110","Selice-Einaudi","44.3673747522502","11.728551289687","0",""
"592120","Pisacane,71","44.345801686137","11.7305295238135","0",""
"592130","Pisacane,Fr.69","44.3459983943414","11.7300473127034","0",""
"592200","Selice-Lasie","44.3739549265301","11.733290766981","0",""
"592210","Selice-Lasie","44.3741001181584","11.733543538113","0",""
"592240","Selice-A14","44.3776556765416","11.7361944570868","0",""
"592250","Selice-A14","44.3783393754922","11.7368162919028","0",""
"592260","Imola Zona Ind.","44.3862878512907","11.7408276130584","0",""
"592280","Selice-Bicocca","44.3851616141812","11.7418421370448","0",""
"592300","Emilia Levante","44.3359689674963","11.7582022114014","0",""
"592310","Emilia Levante","44.3362045809591","11.7583192933252","0",""
"592340","Fluno-Selice","44.4138165819058","11.7633255295792","0",""
"592350","Fluno-Selice","44.4140238384088","11.7630950988235","0",""
"592360","Sasso Morelli,62","44.4139806840583","11.752734810564","0",""
"592370","Sasso Morelli,62","44.4139720546707","11.7532285271011","0",""
"592380","Sasso Morelli,28","44.4170130433737","11.7385995234107","0",""
"592390","Sasso Morelli,28","44.4170071616142","11.7389812978277","0",""
"592400","S.Morelli Centro","44.4183635473485","11.7368461162239","0",""
"592410","S.Morelli Centro","44.4176574933989","11.7366827552213","0",""
"592440","Nuova,15","44.4294535891405","11.7386476570016","0",""
"592450","Nuova,Fr.15","44.4295357765159","11.738434117837","0",""
"592460","Giardino","44.4225046585891","11.7123526357792","0",""
"592461","Giardino","44.4224893802928","11.7122529283874","0",""
"592480","Ponte Massa","44.456287358954","11.7953725501942","0",""
"592490","Ponte Massa","44.4561123129293","11.7954622326987","0",""
"592500","Selice-Fluno","44.4145187967826","11.7641802408736","0",""
"592510","Selice-Fluno","44.4140552771061","11.7641382931676","0",""
"592580","Fluno,1385","44.4132839772548","11.7642290872074","0",""
"592590","Fluno,1416","44.4134196654723","11.7644628747498","0",""
"592600","Fluno,Fr.800","44.4106205061275","11.771170847617","0",""
"592610","Fluno,800","44.4108371852024","11.7710425098761","0",""
"592620","Fluno,Fr.292","44.4086271914309","11.7763279341059","0",""
"592630","Fluno,268","44.4086896692687","11.7766649081533","0",""
"592660","Bubano Centro","44.4110978088368","11.7816300266658","0",""
"592670","Bubano Centro","44.4112326797722","11.7816000014507","0",""
"592680","S.Francesco,2631","44.4122105332617","11.7856165457039","0",""
"592690","S.Francesco,2722","44.4126667575447","11.7847766087091","0",""
"592720","S.Francesco,1614","44.4077328097993","11.7967997619639","0",""
"592730","S.Francesco,1630","44.4078859677144","11.7967216654532","0",""
"592740","Mordano Cimitero","44.4043987643636","11.8061673838036","0",""
"592750","Mordano Cimitero","44.4046291980275","11.8060955244885","0",""
"592780","Mordano Conad","44.3979878828362","11.8119143339967","0",""
"592790","Mordano Conad","44.3980972455887","11.8119333882814","0",""
"592860","Nuova,19","44.4287644201308","11.6885960967242","0",""
"592870","Nuova,Fr.18","44.42894960028","11.688408951748","0",""
"592900","2 Giugno,20","44.4308790496561","11.681208124577","0",""
"592920","Castelguelfo","44.4318523385251","11.6763586741728","0",""
"690000","Matteotti","44.6146759963173","11.8359208110449","0",""
"690010","P.Zza Marconi","44.6145287361829","11.8357120830062","0",""
"690040","Celletta,63","44.6071945014156","11.8404717798022","0",""
"690050","Celletta,64a","44.6068387650529","11.8403501979285","0",""
"690100","S.Biagio","44.5840783975102","11.8632491633908","0",""
"690110","S.Biagio","44.5838371687009","11.8639286419752","0",""
"690120","Ponte Bastia","44.5810419371205","11.872310336786","0",""
"690130","Ponte Bastia","44.5807294977134","11.8721337106538","0",""
"690200","Filo Di Argenta","44.5879494104505","11.9293655118851","0",""
"690210","Filo Di Argenta","44.5880633859391","11.9288402862791","0",""
"690240","Filo-Lodigiana","44.5896206298204","11.9390139527244","0",""
"690250","Filo-Lodigiana","44.5896286011411","11.9384247668231","0",""
"690300","Molino Di Filo","44.5922993817309","11.953949921025","0",""
"690310","Molino Di Filo","44.5924147734537","11.9538045877502","0",""
"690340","Garusola","44.5961581285502","11.9801810671551","0",""
"690350","Garusola","44.5962754649695","11.9794109426861","0",""
"690400","Menate","44.6002519973057","12.0046385896226","0",""
"690410","Menate","44.6003679635222","12.0043371233037","0",""
"690440","Xi Aprile","44.5944990366446","12.0071842161438","0",""
"690450","Xi Aprile","44.5948881183505","12.0075873148503","0",""
"690500","Longastrino","44.5880818338104","12.0084252135076","0",""
"690510","Longastrino","44.5882462048918","12.0086100679218","0",""
"690540","Nullo Baldini","44.5812821288025","12.0114701550598","0",""
"690550","Nullo Baldini","44.5814850457508","12.0107399796403","0",""
"690600","Molinetto Ii","44.5698363930958","12.0277343991297","0",""
"690610","Molinetto Ii","44.569990195624","12.0281806488103","0",""
"690640","Molinetto Iii","44.5628766218404","12.0382678553938","0",""
"690650","Molinetto Iii","44.5630793358431","12.0382280469211","0",""
"690700","Longastrino-Reno","44.5578372241468","12.0472422147113","0",""
"690710","Longastrino-Reno","44.5581482522981","12.0470570039722","0",""
"690740","Gazzana","44.5744883785625","12.0622286406939","0",""
"690750","Gazzana","44.5743938118628","12.0620624609014","0",""
"690800","Anita","44.5662696091025","12.075467922023","0",""
"690810","Anita","44.5664374320997","12.075721077224","0",""
"690840","Mad. Del Bosco","44.557168655968","12.0664186171665","0",""
"690850","Mad. Del Bosco","44.5573623340722","12.0665144176489","0",""
"690900","Mad. Bosco-Reno","44.5489114996212","12.0634743545308","0",""
"690910","Mad. Bosco-Reno","44.5490458171251","12.0638364229206","0",""
"700010","Ravenna Fs","44.4190494038881","12.2076905698035","0",""
"700030","Ravenna Fs-P.Bus","44.4193381307987","12.2073842676297","0",""
"700050","Ravennafs-R.Taxi","44.4188087551294","12.2074707617102","0",""
"700060","Ravenna Fs Box 1","44.4187571905447","12.2076286074274","0",""
"700070","Ravenna Fs Box 3","44.4187516985219","12.2077147625334","0",""
"700080","Maroncelli Fs 1","44.4199021647592","12.207239276039","0",""
"700090","Maroncelli Fs 2","44.4201246141474","12.2071615725472","0",""
"700150","Pallavicini","44.4168552638958","12.2082155749502","0",""
"700190","Guidone","44.4157502815018","12.1994758048872","0",""
"700210","De Gasperi","44.4149784391379","12.1991567051849","0",""
"700230","Santa Teresa","44.4139836132133","12.1975510547205","0",""
"700250","Nullo Baldini","44.4128305599372","12.1957948161676","0",""
"700270","Corti Alle Mura","44.4126376970381","12.1994127207947","0",""
"700290","Augusta","44.4126474894472","12.197136309768","0",""
"700310","Santa Teresa","44.4140831911196","12.1979278390005","0",""
"700320","De Gasperi","44.4149407134588","12.19928990824","0",""
"700330","P.Zza Caduti","44.4151562840313","12.1999040714712","0",""
"700350","Guerrini-Inps","44.4157996230639","12.1987399036326","0",""
"700353","Semaforo Guerrini-D'Azeglio","44.4164329346393","12.1976038520109","0",""
"700390","Farini Liceo","44.4184608150125","12.2038898539164","0",""
"700410","Carducci Speyer","44.4179656650188","12.2061449367212","0",""
"700430","Carducci Liceo","44.4177435708172","12.2043057412519","0",""
"700450","Teatro Alighieri","44.4171553669227","12.2013020851952","0",""
"700470","P.Zza Kennedy","44.4166329456817","12.1972128218217","0",""
"700490","D'Azeglio","44.417763039876","12.1951139894534","0",""
"700510","Baracca","44.4188942271557","12.1936180721787","0",""
"700513","Semaforo P.Zza Baracca-Maggiore","44.4200188490023","12.1934821400289","0",""
"700530","P.Zza Baracca","44.4190339741595","12.1934498303352","0",""
"700590","Guaccimanni","44.4157422162319","12.2032427792952","0",""
"700610","S.Apollinare","44.4162634539586","12.2044518716466","0",""
"700630","Brancaleone","44.4211312566759","12.2053496629573","0",""
"700650","Brancaleone","44.4230444786388","12.2042787543543","0",""
"700670","Hotel Astoria","44.4237439549822","12.2028154304027","0",""
"700673","Semaforo Rotonda Goti-Di Roma","44.4233547962241","12.2014153810376","0",""
"700690","Porta Serrata","44.422428698704","12.201774934838","0",""
"700710","Di Roma-Ghiselli","44.4204740827016","12.2025330073703","0",""
"700713","Semaforo Di Roma-Costa","44.4191677763574","12.2031292553007","0",""
"700750","Teatro Rasi","44.4152991392003","12.2048370719416","0",""
"700770","S.Maria In Porto","44.41388492396","12.2055711344803","0",""
"700910","S.Baldini Iii","44.4159050209139","12.2087113885272","0",""
"700930","S.Baldini Scuole","44.4127413884849","12.2071833686396","0",""
"700980","P.Zza Caduti","44.4154895752356","12.1996925608918","0",""
"701000","P.Zza Aldo Moro","44.4175910677299","12.2094508998273","0",""
"701010","Trieste Farmacia","44.4169841824977","12.2117099831133","0",""
"701013","Semaforo Trieste-Lanciani","44.4176452180884","12.2139903451502","0",""
"701030","Trieste-Fiume","44.417905896075","12.2146796518926","0",""
"701050","Trieste-Grado","44.4185684070382","12.2162387694762","0",""
"701060","Trieste-Aquileia","44.4192857757802","12.2179399498336","0",""
"701063","Semaforo Aquileia-Gulli","44.4173857694025","12.2196507437427","0",""
"701070","Trieste-Murano","44.4200878373376","12.2198480260636","0",""
"701090","Trieste-Duino","44.420955029851","12.2218545255053","0",""
"701110","Trieste Lama","44.4220442285728","12.224252162876","0",""
"701130","Pala De Andre","44.4229564296365","12.2256794014312","0",""
"701140","Pala De Andre","44.4184430966698","12.2285860769682","0",""
"701150","Gulli-Medea","44.4200098997916","12.2240523117936","0",""
"701160","Pala De Andre","44.4179153938232","12.2292277621286","0",""
"701170","Gulli-Caorle","44.4196063537079","12.222954990894","0",""
"701180","Pala De Andre","44.4178428006391","12.229120762959","0",""
"701190","Gulli Curzola","44.4185744729235","12.2219541983059","0",""
"701210","Gulli-Nicolodi","44.4176581626338","12.220720197978","0",""
"701213","Semaforo Gulli-Aquileia","44.417374183424","12.2198546828806","0",""
"701230","Gulli Avis","44.4169664455924","12.2182676139694","0",""
"701250","Gulli-Lanciani","44.4161551129131","12.2152596896721","0",""
"701270","Lanciani","44.417296031227","12.2143050010044","0",""
"701273","Semaforo Lanciani-Trieste","44.4176617116881","12.2140440053049","0",""
"701310","Trieste Farmacia","44.4170792255901","12.2115509088187","0",""
"701313","Semaforo Darsena-Candiano","44.4168656851963","12.2097615876961","0",""
"701330","Fiume","44.4167647878809","12.2156406501267","0",""
"701450","Gulli Peep","44.4185828164648","12.2274589554053","0",""
"701460","Gulli De Andre","44.4197616478644","12.2265071080087","0",""
"701470","Bellucci Ostello","44.4151661321442","12.2215289867951","0",""
"701510","Europa","44.4231320614983","12.2281886675148","0",""
"701570","Europa","44.4230242783227","12.2286826992091","0",""
"701610","Bellucci-Marani","44.4123504553978","12.2139786202221","0",""
"701620","Molinetto-D'Armi","44.4129479663739","12.2110387082049","0",""
"701630","P.Zza D'Armi","44.4147497370503","12.2107379900728","0",""
"701640","P.Zza D'Armi","44.4149860512891","12.2107454452157","0",""
"701650","Pala De Andre","44.4229082694618","12.2253423497221","0",""
"701670","Trieste-Lussino","44.4218789093219","12.2235396069535","0",""
"701690","Trieste-Rovigno","44.4211053092455","12.2218248763438","0",""
"701710","Trieste-Adria","44.4200978114749","12.2196161126282","0",""
"701730","Trieste Aquileia","44.4194193501318","12.2178648066455","0",""
"701750","Trieste-Grado","44.4188193485298","12.2164752615936","0",""
"701753","Semaforo Trieste-Perilli","44.417706286043","12.2140276082566","0",""
"701770","Bellucci Peep","44.4170237196671","12.2261238618769","0",""
"701790","Bellucci-Grado","44.4128776943366","12.218679098628","0",""
"701800","Bellucci-Timavo","44.412298552375","12.2155489064852","0",""
"701810","Gulli Avis","44.4168515414194","12.2181854115508","0",""
"701813","Semaforo Gulli-Aquileia","44.4172846527225","12.2196603821612","0",""
"701830","Gulli-Nicolodi","44.4175527702484","12.220525716589","0",""
"701850","Gulli Curzola","44.4185795707135","12.2221020284707","0",""
"701870","Gulli-Medea","44.4199048118725","12.2238787108762","0",""
"701900","Gulli De Andre","44.4196977231103","12.2264971573411","0",""
"701910","Gulli Peep","44.4188052622297","12.2271765711656","0",""
"701930","Callegari","44.4150427558456","12.2195085855219","0",""
"701990","Media Montanari","44.4161230656639","12.2203378848483","0",""
"702230","A.Milizia Chiesa","44.4097900881352","12.2180697016383","0",""
"702240","Tagliamento","44.4110593999499","12.2125243648094","0",""
"702250","Poggi-A.Milizia","44.4091469295413","12.2121282889303","0",""
"702270","Dei Poggi-Podium","44.4079291458365","12.2131776346848","0",""
"702290","Poggi-Metauro","44.4057976600833","12.215019930662","0",""
"702310","Foglia-Dei Poggi","44.4045773855808","12.21647255217","0",""
"702330","Foglia-Sala","44.4053516531957","12.2188332751893","0",""
"702333","Semaforo Foglia-Sala","44.4055833573915","12.2193638336474","0",""
"702340","Foglia-Sala","44.4053335292393","12.2186172832484","0",""
"702350","Foglia-Dei Poggi","44.4045723059824","12.2162031289711","0",""
"702370","Poggi-Metauro","44.4062109762041","12.2148684956287","0",""
"702390","Dei Poggi Podium","44.4080231081101","12.2131932079107","0",""
"702430","Poggi-Molinetto","44.4105508042911","12.21138219126","0",""
"702450","Molinetto-Poggi","44.4120201894685","12.2123820387285","0",""
"702480","Molinetto-Isonzo","44.4119966476946","12.2163357635429","0",""
"702490","De Sanctis","44.4127719081591","12.2191298195236","0",""
"702510","Stradone","44.4146480952329","12.2213709447409","0",""
"702530","Casadei","44.4161734995765","12.2242826680579","0",""
"702550","Molinetto-Lama","44.4167736573587","12.2260219220752","0",""
"702570","A.Milizia Chiesa","44.4096485869516","12.2181437450663","0",""
"702573","Semaforo Don Sala-Foglia","44.4056067738428","12.2193397912808","0",""
"702590","Milizia-Stradone","44.4117209935692","12.2247679345686","0",""
"702610","Stradone-Europa","44.4109201665747","12.2285655729699","0",""
"702630","Stradone P.L.","44.4088626663803","12.2330343297864","0",""
"702650","Margotti","44.405464310706","12.2411856330772","0",""
"702670","P.Fuori Staggi","44.4043473138691","12.2467825346855","0",""
"702690","P.Fuori Poste","44.4055159924582","12.2483879454272","0",""
"702710","P.Fuori Sintoni","44.4057510679244","12.2510234597813","0",""
"702713","Semaforo Bonifica-Bonifica","44.4060434533034","12.252922436507","0",""
"702730","P.Fuori 3 Laghi","44.4062346760014","12.2544072031645","0",""
"702750","Pazzaglia","44.40844515658","12.2534910041424","0",""
"702770","P.Fuori Macrelli","44.4068615162201","12.2524310193743","0",""
"702773","Semaforo Macrelli-Bonifica","44.4061057592453","12.2528858318704","0",""
"702790","P.Fuori Sintoni","44.4058042916433","12.2507424602572","0",""
"702810","P.Fuori Poste","44.4055988654132","12.2483685000315","0",""
"702830","P.Fuori Staggi","44.4045929764283","12.2468426414381","0",""
"702850","Margotti","44.4055300705555","12.2412957371242","0",""
"702870","Stradone P.L.","44.4091069852856","12.2327655757447","0",""
"702890","Stradone-Europa","44.410985049671","12.2286701618366","0",""
"702910","Milizia-Stradone","44.4118305392207","12.2249044866011","0",""
"703010","Porta S.Mama","44.4119656373119","12.2000156919988","0",""
"703020","S.Mama-S.Rocco","44.4103282726759","12.2004444413316","0",""
"703030","S.Mama-Plazzi","44.4084299272742","12.1995983713117","0",""
"703050","Ravegnana-Avisio","44.4073913373341","12.1994962956188","0",""
"703070","Bassano Grappa","44.4062116021837","12.1993320321233","0",""
"703090","Bassano Grappa","44.4053521957501","12.2020479557671","0",""
"703110","Gramsci Gallery","44.4043869555364","12.2040422079473","0",""
"703113","Semaforo Gramsci-La Malfa","44.4024866942322","12.2022719853959","0",""
"703130","Gramsci-La Malfa","44.4025550335928","12.2015610238297","0",""
"703140","Ricci-Muratori","44.403147037545","12.2023519969228","0",""
"703143","Semaforo La Malfa-Gramsci","44.4024898643295","12.2022231837374","0",""
"703150","Gramsci Parco","44.40268351749","12.199778858585","0",""
"703170","S.Mama Lama","44.4023472128618","12.1964263396686","0",""
"703173","Semaforo Ravegnana-Ravegnana","44.4014115559882","12.1968014273631","0",""
"703190","Copernico","44.4012544566139","12.1982401884169","0",""
"703210","Calcagnini","44.4010681899199","12.2008549891129","0",""
"703220","Galilei Iii","44.4009713419067","12.2025364508626","0",""
"703230","Flammarion","44.3994757123181","12.2058896816741","0",""
"703240","Piscina","44.3994063444925","12.2012335952929","0",""
"703250","Falconieri","44.3996340779355","12.1969640817685","0",""
"703270","Edicola","44.4020142627441","12.1970185383569","0",""
"703290","Gramsci Parco","44.4025912524045","12.1999286978183","0",""
"703293","Semaforo Gramsci-Caletti","44.4024522169702","12.202217360712","0",""
"703310","Gramsci-La Malfa","44.4023878768031","12.2027776841153","0",""
"703330","Gramsci Gallery","44.4043137446699","12.2041487183242","0",""
"703350","B. Del Grappa Ii","44.4053784059088","12.2022573014625","0",""
"703370","B. Del Grappa I","44.4059876618325","12.2004665695789","0",""
"703390","Ravegnana-Avisio","44.4073393952722","12.1995735730301","0",""
"703410","Mangagnina","44.408862522624","12.2011093539885","0",""
"703430","Borgo San Rocco","44.4098552116413","12.2020210724907","0",""
"703440","Romolo Ricci","44.4116738205727","12.2012737465476","0",""
"703450","Cassino-S.Mama","44.4065439667834","12.1973536287826","0",""
"703470","S.Mama-Anzio","44.4050820843884","12.1973273257974","0",""
"703490","S.Mama-Vignuzzi","44.4035209027923","12.1967455027402","0",""
"703510","Berlinguer","44.4030627730735","12.1947914313131","0",""
"703513","Semaforo Berlinguer-Marconi","44.4042696757573","12.1906643664624","0",""
"703530","Berlinguer","44.403028975447","12.1943500060175","0",""
"703550","Bv. Falconieri","44.3993247375103","12.1967588654933","0",""
"703553","Semaforo Ravegnana-Galilei","44.4013419247745","12.196827003469","0",""
"703570","S.Mama","44.4052481064646","12.1975414040163","0",""
"703590","Cassino-S.Mama","44.4066564659622","12.1972715899249","0",""
"703610","Bv. Falconieri","44.3992589334422","12.196625339583","0",""
"703710","Cesarea-Carraie","44.4112974135166","12.2067308145241","0",""
"703730","Mangagnina","44.4091989655455","12.2076393633086","0",""
"703750","Romea-Adige","44.4075019414819","12.2084128594922","0",""
"703770","Romea-Senio","44.4058788380448","12.2091397240428","0",""
"703790","Romea Ferramenta","44.4030804215487","12.2113849214579","0",""
"703810","Romea Farmacia","44.4023709028091","12.2124035301809","0",""
"703830","Romea Farmacia","44.402561305087","12.2123044701552","0",""
"703850","Romea Chiesa","44.4036155352318","12.2106682886621","0",""
"703870","Panfilia","44.4063828509321","12.2101838539551","0",""
"703890","Rubicone Scuola","44.4088204773495","12.2101898078053","0",""
"703910","Marecchia","44.410686832861","12.2091391381138","0",""
"704010","Missiroli Osped.","44.4117849620955","12.1908127842636","0",""
"704030","Randi-Missiroli","44.4101857628136","12.191657846847","0",""
"704050","Ospedale Randi","44.4088681492489","12.1906228939928","0",""
"704070","Randi-Meucci","44.406599816553","12.1888588159719","0",""
"704090","Tribunale Randi","44.4037931199165","12.1858487704495","0",""
"704100","Randi-Otello","44.4016998748291","12.1832702880913","0",""
"704110","Alberti-Bramante","44.4016529705321","12.1850195199578","0",""
"704120","Alberti Edicola","44.3997872372742","12.1862185687457","0",""
"704150","Le Corbusier","44.3981421221269","12.1908205590761","0",""
"704160","Vitruvio","44.4003948088142","12.1897901915703","0",""
"704170","Marconi-Suzzi","44.4023828150381","12.189732373437","0",""
"704180","Marconi","44.4034812612723","12.1902921120199","0",""
"704183","Semaforo V. Marconi","44.4042161709275","12.1906033471241","0",""
"704190","Randi-Suzzi","44.4044294897666","12.1871918926724","0",""
"704200","Pascoli Scuole","44.4048587686532","12.1899582753579","0",""
"704210","Randi-M. Pascoli","44.4064611924077","12.1891610571936","0",""
"704220","Missiroli-Vacchi","44.4137315269334","12.186979616985","0",""
"704230","Randi-Cassino","44.4090593597905","12.1914471256598","0",""
"704250","Piave-Asiago","44.4112319487726","12.193130334273","0",""
"704260","Piave","44.4123366132339","12.1958640464054","0",""
"704300","Gorizia","44.4127751556866","12.1888795493845","0",""
"704310","Cassino Stadio","44.4074322940864","12.1929768131447","0",""
"704330","Cassino-Randi","44.4079369059477","12.1910871287677","0",""
"704350","Missiroli Osped.","44.412158520471","12.190256211284","0",""
"704370","Gorizia","44.4127675857875","12.1890821172058","0",""
"704390","Missiroli-Vacchi","44.4137923879628","12.1870852023518","0",""
"704410","Cassino Itis","44.4076440705481","12.1916343251952","0",""
"704430","Cassino Stadio","44.4071293499897","12.1942929624321","0",""
"704450","Itis","44.407002444031","12.1916447988002","0",""
"704510","Pascoli Scuole","44.4047250380207","12.1899746096798","0",""
"704513","Semaforo Pascoli-Berlinguer","44.4043320741466","12.1905599040847","0",""
"704550","Morigia-Randi","44.4055637592261","12.1911311941947","0",""
"704610","Randi-Lirica","44.4017568711451","12.1835051678023","0",""
"704630","Randi Cna","44.4030624694185","12.1854138461869","0",""
"705010","Vicoli-Pazzi","44.4140999538424","12.1845388085171","0",""
"705020","Pazzi-Fiorita","44.41569180134","12.1846630792112","0",""
"705030","Marche","44.4175084425489","12.1835704726851","0",""
"705050","Santucci-Cesari","44.4182224254452","12.1817207551036","0",""
"705070","Santucci-Vitali","44.4190401131409","12.1793771234981","0",""
"705090","Santucci Edicola","44.419342369876","12.1773233495412","0",""
"705100","Tivoli","44.4191211010679","12.1752999529698","0",""
"705110","Monterotondo","44.4187979427822","12.1762494020214","0",""
"705130","Q. N. Baldini","44.4192532840803","12.1774974800082","0",""
"705150","Santucci-Vitali","44.4189429451932","12.1793009949574","0",""
"705170","Santucci-Cesari","44.4183281094191","12.1811575399528","0",""
"705190","Belfiore","44.4162566547296","12.1842477039735","0",""
"705210","P.Zza Resistenza","44.414783730818","12.1876917531763","0",""
"705410","Vicoli-Codronchi","44.4143983633985","12.1823732468508","0",""
"705430","Vicoli-Badiali","44.4146022527053","12.1779424881998","0",""
"705450","Leopardi-Montale","44.4130230156713","12.1757394654835","0",""
"705470","Saragat","44.4092311015515","12.1773576471252","0",""
"705490","Benaco","44.406334448337","12.1779216492809","0",""
"705500","Larderello","44.4044369709603","12.1773163811226","0",""
"705510","Stromboli","44.4056829747598","12.1801768669652","0",""
"705520","Calamandrei","44.4074087267159","12.1785951367673","0",""
"705530","Saragat","44.4097623622306","12.1770950647451","0",""
"705550","Leopardi-Montale","44.4131001297483","12.1759446016223","0",""
"705570","Vicoli-Badiali","44.4145152239808","12.1782117712885","0",""
"705590","Piceno","44.4134697579429","12.1817592684327","0",""
"705670","Cmp","44.4133236317719","12.1854184945766","0",""
"705690","Lercaro-Murri","44.417099422969","12.1749580440622","0",""
"705710","Lercaro-Gnani","44.4172008773895","12.1749582012178","0",""
"705800","Cinema City","44.4175481771623","12.1715624410639","0",""
"705830","Allende Cinema","44.4180626497378","12.1728145481839","0",""
"705850","Allende Cinema","44.4183204585273","12.1730229488932","0",""
"706010","Rinascita","44.4204970271072","12.1919970474068","0",""
"706030","Circoscrizione","44.4208683316577","12.190308895648","0",""
"706050","Magg.-Canalazzo","44.4213603395666","12.1875218613679","0",""
"706070","Domus Nova","44.4219103018341","12.1849137949869","0",""
"706090","Faentina-Mesini","44.4225628219115","12.1801265378685","0",""
"706093","Semaforo Faentina-Dorese","44.4227078851445","12.1786304395181","0",""
"706110","Faentina-Dorese","44.4228967500194","12.17697796219","0",""
"706130","Faentina-Caprera","44.4232072575284","12.1745837041355","0",""
"706150","Faentina-Allende","44.4231019945965","12.1747890319519","0",""
"706170","Faentina-Dorese","44.4228511066503","12.1770006117709","0",""
"706173","Semaforo Faentina-Agro Pontino","44.422674244442","12.1785324529404","0",""
"706190","Faentina-Rossini","44.4224490408825","12.1804459057086","0",""
"706210","Faentina-Cavina","44.4220694899714","12.1835645113694","0",""
"706230","Domus Nova","44.4217019508212","12.1857340605224","0",""
"706250","Frignani","44.4212336727966","12.1878666984787","0",""
"706270","Circoscrizione","44.4209207271293","12.1897450316517","0",""
"706290","Rinascita","44.4205329934686","12.1917096142762","0",""
"706293","Semaforo Maggiore-Montone Abb.","44.4200131951473","12.1934110610473","0",""
"706330","S.Gaetanino","44.4242006375561","12.2010473874893","0",""
"706350","Narsete","44.4260060140071","12.2002865252564","0",""
"706353","Semaforo S.Alberto-S.Alberto","44.4264038915166","12.2000720569716","0",""
"706370","Antica Popilia","44.4284362130589","12.1991709588331","0",""
"706390","Brunelli","44.4287869035557","12.1952597732868","0",""
"706410","Zalamella-Rotta","44.4284658912415","12.1922286911558","0",""
"706430","Bartolini","44.4281464930708","12.1900953919046","0",""
"706433","Semaforo Zalamella-Loreta","44.4279876196714","12.1893413724389","0",""
"706450","Bv. Canalazzo","44.4273843052097","12.1866102677893","0",""
"706453","Semaforo Zalamella-Canalazzo","44.4272169550632","12.1859504057697","0",""
"706470","Cavina-Dradi","44.4256581193523","12.1825412300887","0",""
"706520","Mesini Scuola","44.4242143208154","12.179448793284","0",""
"706530","Cicognani","44.4247528347141","12.1814341814393","0",""
"706550","Xiv Luglio","44.4249731581273","12.1838101981966","0",""
"706570","Bovini","44.4253278202161","12.1879386751626","0",""
"706590","Severini","44.4253906428025","12.1925954508471","0",""
"706593","Semaforo Severini-Rotta","44.4255590321217","12.1937613759941","0",""
"706610","Rotta","44.4267135860899","12.1935272657104","0",""
"706630","Vicolo Tacchini","44.4274763787096","12.195128542248","0",""
"706650","S.Alberto-Totila","44.4275011459628","12.1983768264238","0",""
"706653","Semaforo S.Alberto-Cilla","44.4264423782105","12.1999991659279","0",""
"706670","S.Alberto-Cilla","44.4260997088683","12.2000759431426","0",""
"706690","S.Gaetanino","44.4241168525384","12.2008798150765","0",""
"706693","Semaforo S.Alberto-Roma","44.4233809314683","12.2011737318591","0",""
"706810","San Gaetanino,41","44.4215873477295","12.1942361534825","0",""
"706850","San Gaetanino,185","44.4232073164242","12.1980919570093","0",""
"707010","Antico Squero","44.4220210902004","12.2101942112452","0",""
"707030","Chiavica-Durazzo","44.4258005454028","12.2111274866385","0",""
"707050","Chiavica-Albania","44.4282323166068","12.2102481077983","0",""
"707070","Chiavica Park.","44.4304026645008","12.2098532798042","0",""
"707090","S.Giuseppe","44.4333255353583","12.2095095440942","0",""
"707110","Ch. Romea-Mattei","44.4348276172763","12.2093398871809","0",""
"707150","Buccari","44.4276650511758","12.2167440010876","0",""
"707170","Case Agip","44.4287374047375","12.2187433860674","0",""
"707190","Industrie Start","44.4306605937211","12.2221156035503","0",""
"707210","Baiona Mocadoro","44.4339825156205","12.2268943768832","0",""
"707230","Cimitero Chiesa","44.4341245697223","12.2320536143969","0",""
"707250","Cimitero Rotonda","44.4377639059465","12.2313711039134","0",""
"707270","Cimitero Enichem","44.4394464059681","12.2332771446128","0",""
"707290","Enichem","44.4419359005378","12.2338066539594","0",""
"707300","Baiona Enichem","44.4412303571044","12.232908183026","0",""
"707310","Enichem Bar","44.4426229284356","12.2325628359993","0",""
"707320","Enichem Mensa","44.4425189660824","12.2296216271963","0",""
"707330","Baiona Capolinea","44.4423098946627","12.2281021552622","0",""
"707340","Enichem Bar","44.4425167622095","12.2322428199298","0",""
"707350","Baiona P.L.","44.4434065495428","12.2267601972291","0",""
"707370","Bassette Hera","44.4477678925996","12.2247906177563","0",""
"707390","Bassette Negrini","44.4493731320303","12.221290290425","0",""
"707410","Bassette Monti","44.4490187597663","12.21528339993","0",""
"707430","Bassette Grandi","44.4488605030291","12.2119717193556","0",""
"707440","Bassette Cfp","44.4527414093354","12.2145818424104","0",""
"707450","Romea Nord Hera","44.4482641321036","12.2094164358102","0",""
"707460","Romea Nord Eni","44.4452513263576","12.2103734011193","0",""
"707470","Azienda Marani","44.4662339564687","12.207735513777","0",""
"707510","Ch. Romea-Mattei","44.4347011419142","12.2091798084869","0",""
"707530","S.Giuseppe","44.4337705859465","12.209291850872","0",""
"707550","Chiavica Park.","44.4304856889776","12.2096701152686","0",""
"707570","Chiavica-Albania","44.4280359212178","12.2101830115437","0",""
"707590","Chiavica-Durazzo","44.4251166261681","12.2111542265685","0",""
"707610","Mausoleo","44.4242942356156","12.2091827792666","0",""
"707630","Mattei Chiesa","44.4353453834404","12.2084460073138","0",""
"707650","Mattei-Garda","44.4352346622127","12.2060669802291","0",""
"707670","Mattei-Como","44.4349634789567","12.2058273190083","0",""
"707720","Ponte Mobile","44.4322014474635","12.2247050082547","0",""
"707750","Indust.-Chiavica","44.4251602889009","12.2124952162682","0",""
"707760","Indust.-Chiavica","44.4251585000388","12.2123074219272","0",""
"707810","Residenz. Anic","44.443327545382","12.2266251532899","0",""
"707830","Piccolo Hotel","44.4354719751201","12.2284763428922","0",""
"707850","Baiona Mocadoro","44.4341656828855","12.2269525637919","0",""
"707860","Ponte Mobile","44.4322493092474","12.2245705382183","0",""
"707870","Deposito Start","44.4304522436692","12.2215237046868","0",""
"707890","Case Agip","44.4289103682077","12.2188031415762","0",""
"707900","P.Le Enichem","44.4433975396723","12.2331208192348","0",""
"707910","Buccari","44.4277302038843","12.2166634810409","0",""
"707920","Enichem","44.4418852412332","12.233688248496","0",""
"707930","Bassette Grandi","44.4487934332391","12.2120165786632","0",""
"707950","Bassette Monti","44.4489301690894","12.2152912782916","0",""
"707970","Bassette Negrini","44.4492939635326","12.2212060726827","0",""
"708010","Conservatoria","44.4232192903974","12.1639496414034","0",""
"708030","Distributore","44.4218877389908","12.1580436351961","0",""
"708050","Faentina Nissan","44.4213395225872","12.1556059174183","0",""
"708070","Zarattini Mir","44.4205319769879","12.1521018516677","0",""
"708090","Zarattini Chiesa","44.4199550147291","12.1490463266422","0",""
"708110","Del Lavoro","44.4193042745031","12.1453925786681","0",""
"708120","Dei Granatieri","44.4187370518511","12.1426665946027","0",""
"708130","Braille","44.4168443661973","12.1399977045676","0",""
"708140","Faentina Maie","44.4181110964932","12.1400236229073","0",""
"708150","Zarattini Cap.","44.4195101470086","12.1471497230959","0",""
"708160","Del Lavoro","44.4192484351751","12.1455403923124","0",""
"708170","Zarattini Canale","44.4201845552619","12.1510925459889","0",""
"708190","Zarattini Mir","44.4205139632338","12.1525297078104","0",""
"708210","Faentina Toyota","44.4214194709816","12.1565730393927","0",""
"708230","Conservatoria","44.4232100353373","12.1644077333901","0",""
"708270","Iperbarico","44.4108238373871","12.1656536974551","0",""
"708310","Einstein","44.3991062681087","12.1758343657563","0",""
"708320","Lago Di Lugano","44.4038956594979","12.1741593919416","0",""
"708330","B. Montone Lario","44.4015672961394","12.1760050171149","0",""
"708350","B. Montone Cap.","44.4040677732078","12.1768370393657","0",""
"708360","Trasimeno","44.4010165938885","12.1756149684893","0",""
"708370","Einstein","44.3989066555164","12.1763331429314","0",""
"708390","Esp","44.3973250689201","12.1795120258907","0",""
"708430","S.Alberto Ina","44.4398443897779","12.1973271831749","0",""
"708450","Ministraza","44.437084362166","12.1953686421429","0",""
"708470","Universita","44.4347215124073","12.1949577982818","0",""
"708490","S.Alberto Cap.","44.4327723060404","12.1959373770652","0",""
"708510","Universita","44.4348415185915","12.1950904921527","0",""
"708530","Ministraza","44.4370257224223","12.1954688409194","0",""
"708550","S.Alberto Ina","44.4400132292412","12.1976180229727","0",""
"708570","Ist. Agrario","44.4352830879093","12.197966759489","0",""
"708590","Ist. Agrario","44.4351243204532","12.197889626862","0",""
"708710","Ponte Montone","44.3933011452542","12.1969708416634","0",""
"708730","Ravegnana,415","44.3889376088321","12.1965808894395","0",""
"708750","Ponte Celle","44.3861478155502","12.1957571707923","0",""
"708760","V.Cella-Turci","44.3838504647724","12.1986455539219","0",""
"708770","Mad. Albero Cap.","44.3843752672701","12.1982291329098","0",""
"708790","Rivalta","44.3863916929858","12.1986206539162","0",""
"708810","Ponte Celle","44.3856547970848","12.1957453091368","0",""
"708830","Ravegnana,Fr.413","44.3895420477162","12.1968727905374","0",""
"708850","Ponte Montone","44.3945416806335","12.197176214022","0",""
"708890","Mad.Albero Cella","44.3808001917249","12.2013760427136","0",""
"708910","Cella-Grassi","44.3780818098315","12.2013983421244","0",""
"708950","Cella-Biagi","44.3787733034478","12.2017799996692","0",""
"708970","Mad.Albero Cella","44.3808358788271","12.2014883176299","0",""
"709010","Ponte Nuovo","44.3952488663342","12.2165385617828","0",""
"709030","Romea Sud-Pesaro","44.3939554265748","12.2178273798662","0",""
"709050","Romea Sud-Fano","44.3929674059367","12.2188518458304","0",""
"709070","Romea-Falconara","44.3911376755356","12.220735184344","0",""
"709090","Romea Sud-Vasto","44.3881233666492","12.2238214905631","0",""
"709110","Romea Sud,201","44.3865431282672","12.225476938057","0",""
"709130","Classe Piazza","44.3807528089206","12.2350755220302","0",""
"709160","Classe Scuola","44.3778385827612","12.2342847614672","0",""
"709170","Classicana","44.3758142190926","12.2383680596193","0",""
"709190","Classe-Bosca","44.3748583897278","12.2415901144241","0",""
"709210","Classecantoniera","44.3724500716163","12.2434082056909","0",""
"709230","Sottostrada","44.371073060963","12.2444370822345","0",""
"709240","Demolitore","44.3711061188535","12.244760312421","0",""
"709250","Casa Cantoniera","44.3741469975353","12.2425063779335","0",""
"709270","Classicana","44.3759348158291","12.2382009567801","0",""
"709290","Classe Scuola","44.3780706263424","12.2342427697943","0",""
"709300","Classe Basilica","44.3813758203258","12.2308167072576","0",""
"709310","Romea Sud,Fr.201","44.3861520013344","12.2260323368491","0",""
"709330","Romea Sud-Vasto","44.3885347273652","12.2236023022429","0",""
"709350","Romea-Falconara","44.3916516320793","12.2204457336451","0",""
"709370","Ponte Nuovo-Fano","44.3933874756248","12.2186016628154","0",""
"709410","Ponte Nuovo","44.3950815515302","12.2168611677362","0",""
"709450","Classe P.L.","44.3812519570377","12.2365215343866","0",""
"709470","Longidieno","44.3825523230219","12.2377519010538","0",""
"709490","R.Vecchialiburna","44.3872995330463","12.2321671616236","0",""
"709510","R.Vecchia-Panzio","44.3891108469447","12.230670396736","0",""
"709550","Liburna Cap.","44.3904902185272","12.2319334979643","0",""
"709610","R.Vecchia-Panzio","44.3892808432501","12.2303460388075","0",""
"709630","Liburna","44.3870833386309","12.2322300004886","0",""
"709650","Longidieno","44.3823332894153","12.2377798486883","0",""
"709660","Classe Pescara","44.3780444156067","12.2353845209598","0",""
"709670","Classe P.L.","44.3813901569362","12.2366760525146","0",""
"709680","Classe Morgagni","44.3797785489782","12.236859540628","0",""
"709690","Classe Piazza","44.3808272478173","12.234923227909","0",""
"709710","Dismano","44.3949568661314","12.2150360184192","0",""
"709730","Del Pino","44.3933410183612","12.2138153764821","0",""
"709740","Pino-Magnolia","44.3921505832095","12.2121766052243","0",""
"709750","Pino-Dei Peschi","44.3909735055956","12.2105966074009","0",""
"709770","Pino-Dei Ciliegi","44.3910734894024","12.2087438370498","0",""
"709790","Pino-56 Martiri","44.3932057712725","12.2082810755756","0",""
"709810","Martiri-Cotogni","44.393743081213","12.2108686841589","0",""
"709830","Martiri-Platano","44.3939857286877","12.2134234867299","0",""
"709850","Dismano-Chioggia","44.394790594149","12.2150936527226","0",""
"709853","Semaforo Galilei-Ravegnana","44.4013882107351","12.1968609763046","0",""
"709870","Marabina-P.Nuovo","44.3958748858422","12.2169020140189","0",""
"709890","Romeav.-Marabina","44.3965731775182","12.2208547434243","0",""
"709900","R.Vecchia,129","44.3949342583323","12.2233013149487","0",""
"709910","R.Vecchia,120","44.3933540480714","12.2256334969966","0",""
"709930","R.Vecchia,119","44.3933151480828","12.2258583140452","0",""
"709940","R.Vecchia,129","44.3949600265407","12.2234736182419","0",""
"709950","Romeav.-Marabina","44.3965425343451","12.2211021661909","0",""
"710010","Trieste Fiat","44.4257634942398","12.2292534874648","0",""
"710030","Case Sarom","44.4339633667922","12.2419162542381","0",""
"710070","Trieste-Germani","44.4446182576047","12.2643344008867","0",""
"710090","Trieste-Idrovora","44.4478725229799","12.272461869429","0",""
"710110","Trieste-Idrovora","44.4479716425503","12.2724696466547","0",""
"710130","Trieste-Germani","44.4447286974574","12.2642769200682","0",""
"710170","Case Sarom","44.4341220060324","12.2417908963697","0",""
"710190","Trieste Fiat","44.425763379759","12.2289375186285","0",""
"710230","Casa Rossa","44.420659196708","12.2362877855029","0",""
"710240","Molinetto-Staggi","44.4226713796796","12.2415837181051","0",""
"710250","Molinetto-Ss67","44.4250700368003","12.2468568874324","0",""
"710270","Punta Ravenna","44.4286503926136","12.2543729836099","0",""
"710290","Scolone","44.4325238438928","12.2620410320366","0",""
"710350","Molinetto Agip","44.435029372433","12.2784278534979","0",""
"710410","Molinetto Agip","44.4355241987317","12.2785073290464","0",""
"710430","Idrovora","44.4357993202929","12.272154200418","0",""
"710450","Molinetto,153","44.4341188166108","12.2636054553289","0",""
"710470","Molinetto Vivaio","44.4324352760413","12.2589089836724","0",""
"710490","Madonnina","44.4288777334473","12.2544866080919","0",""
"710510","Molinetto-Ss67","44.426631842298","12.2497233934974","0",""
"710520","Molinetto-Staggi","44.4227950725078","12.2415387925004","0",""
"710530","Casa Rossa","44.4206774856628","12.2358968757772","0",""
"711010","Acquedotto","44.4107667880475","12.3051423270935","0",""
"711020","Zancanaro Tono","44.4090378357291","12.3053726371943","0",""
"711030","Puccini-Mascagni","44.4031133672693","12.3117055706116","0",""
"711050","Puccini-Cilea","44.4067200282651","12.3108854395119","0",""
"711060","Orazio","44.4091109732546","12.3098873906598","0",""
"711070","Petrarca K2","44.4095890936561","12.3125360524837","0",""
"711090","Petrarca Azzurra","44.4123564340671","12.3105330755135","0",""
"711110","Petrarca Calypso","44.4159278060681","12.3091758699446","0",""
"711130","Bagno Sole","44.4178322758908","12.3082236754289","0",""
"711140","Metastasio","44.4184554335802","12.3058851427479","0",""
"711150","Picasso","44.4192322390429","12.304682363239","0",""
"711170","Calandre","44.4214806659827","12.3031459405572","0",""
"711190","Michelangelo,5","44.4240398584529","12.3018689140348","0",""
"711210","Michelangelo,39","44.426256357257","12.3009033036416","0",""
"711230","Pritona","44.427989938951","12.2987984281369","0",""
"711250","Manz.-Botticelli","44.4273347118661","12.2974688087807","0",""
"711270","Manzoni-Leonardo","44.4223721017662","12.3003322326906","0",""
"711290","Manzoni-Ariosto","44.4180285070606","12.3028380207989","0",""
"711310","Manzoni Chiesa","44.4139109429981","12.3040087044877","0",""
"711360","Holbein","44.4306030716736","12.298008136471","0",""
"711380","Rembrandt","44.4285600958697","12.2995779923179","0",""
"711390","Campeggi Coop 3","44.4335277834552","12.2970698984332","0",""
"711410","Campeggi Adriano","44.4337642770699","12.2971659336033","0",""
"711420","Holbein","44.4305478477143","12.2979308208658","0",""
"712000","C. Commerciale","44.4381216379214","12.2873766915387","0",""
"712010","Navigatori Conad","44.4394469966619","12.2900699096885","0",""
"712030","Navigatori","44.4402513598441","12.2920018924401","0",""
"712110","Bv. Fontana","44.4414570714652","12.2945707169625","0",""
"712130","Bagno Bologna","44.444196759264","12.2946979077593","0",""
"712150","Bv. Delle Sirti","44.4468452381547","12.2934860211111","0",""
"712170","Bagno Diana","44.4494530308157","12.2923436942691","0",""
"712190","Colombe-Americhe","44.4512916428176","12.2914832883249","0",""
"712210","Bagno Privato","44.453625230844","12.290304493391","0",""
"712230","Bagno Eva Day","44.4550071569794","12.2896218788452","0",""
"712250","Terme Punta M.","44.4563437943862","12.289037226044","0",""
"712270","Bagno B.B.K.","44.458259835756","12.2881519045861","0",""
"712290","Della Pace","44.4586420842801","12.2857691027016","0",""
"712310","Della Pace","44.4588382632895","12.2861983869627","0",""
"712330","Bagno B.B.K.","44.4576141952387","12.2882248274633","0",""
"712350","Terme Punta M.","44.4560049258394","12.2889721555148","0",""
"712370","Bagno Eva Day","44.4548876269066","12.2895101776861","0",""
"712390","Bagno Privato","44.4532401973789","12.2902928803204","0",""
"712410","Colombo-Americhe","44.4505431567365","12.2916396394436","0",""
"712430","Bagno Diana","44.4490087983064","12.2923375878481","0",""
"712450","Bv. Delle Sirti","44.4466261460098","12.2933649537281","0",""
"712470","Bagno Bologna","44.4440974619873","12.2945630502508","0",""
"712490","Bv. Ancora","44.4412005146883","12.2936915338749","0",""
"712510","Navigatori","44.4403028156453","12.291761411856","0",""
"712530","Navigatori Conad","44.4394449302191","12.2898646484494","0",""
"712540","C. Commerciale","44.4383201775674","12.2874234518834","0",""
"712550","Delle Americhe","44.4395816291877","12.2892406183083","0",""
"712580","Delle Americhe","44.4395772265924","12.2890073549691","0",""
"712590","Fontana-Navigat.","44.4408007678345","12.295201768768","0",""
"712610","Fontana-Timone","44.4379748598751","12.296548145303","0",""
"712630","Fontana-Pineta","44.4358376469091","12.2976505952775","0",""
"712650","Fontana-Pineta","44.4359076241051","12.2977430791689","0",""
"712670","Fontana-Timone","44.4380368314055","12.2966067823613","0",""
"712690","Fontana-Navigat.","44.4412240374206","12.2951893460967","0",""
"712710","Navigatori-Lido","44.436703919577","12.2844397436685","0",""
"712730","Navigatori-Lido","44.436651540048","12.2839397495304","0",""
"712750","Americhe-Sirti","44.4433994642287","12.2892046282473","0",""
"712770","Americhe-Medusa","44.4501855572057","12.2902420952551","0",""
"712790","Americhe-Medusa","44.4495713284499","12.2893768474382","0",""
"712810","Americhe-Sirti","44.4430309650591","12.2889575180868","0",""
"713010","Villa Marina","44.4616201400206","12.2868197052757","0",""
"713030","Della Pace-Alma","44.4639089619825","12.2861185957084","0",""
"713050","Camp. Piomboni","44.46684387589","12.2851771446255","0",""
"713070","Rivaverde","44.469185172168","12.2845291537172","0",""
"713090","Camp. Rivaverde","44.472253088655","12.2836578819823","0",""
"713110","Nazioni-Cottages","44.4752530273956","12.28295873846","0",""
"713130","Villa Teresa","44.4777576430555","12.282827266864","0",""
"713140","Mare Pineta","44.4792778309272","12.2827260744828","0",""
"713150","Park Hotel","44.4812834144365","12.2825367110961","0",""
"713160","Pellico","44.4822716765223","12.2793162502395","0",""
"713170","Pellico-Iv Nov.","44.4838752162369","12.2792065365726","0",""
"713190","Chiesa","44.4838919539591","12.2755125227218","0",""
"713200","Trieste Scuole","44.485674378415","12.2745766266594","0",""
"713203","Semaforo Iv Novembre-Trieste","44.4838161220323","12.2749875863193","0",""
"713210","Dei Mille-Sapri","44.4874375776425","12.2760953774982","0",""
"713220","Xxiv Maggio","44.4877455414713","12.2791152330105","0",""
"713230","Vecchi","44.4891963433836","12.2795151506068","0",""
"713240","Marina Traghetto","44.4910822533969","12.2795117557331","0",""
"713260","Xxiv Maggio","44.4878534026919","12.2787715069999","0",""
"713270","Dei Mille-Sapri","44.4875505606564","12.2757539995088","0",""
"713280","Trieste Scuole","44.4853106091836","12.2744366319893","0",""
"713290","Chiesa","44.4838050079199","12.2757099903823","0",""
"713300","Pellico-Iv Nov.","44.4838359750258","12.2790229651218","0",""
"713310","Pellico","44.4821144491275","12.2791596170601","0",""
"713330","Park Hotel","44.4815148015075","12.2823386530692","0",""
"713350","Mare Pineta","44.4794957867564","12.2824999527716","0",""
"713370","Villa Teresa","44.4777563393524","12.2826147593784","0",""
"713390","Nazioni-Cottages","44.4756633937451","12.2827667171348","0",""
"713410","Camp. Rivaverde","44.4728198629788","12.2833480084908","0",""
"713430","Rivaverde","44.4710288427665","12.2838545167836","0",""
"713450","Camp. Piomboni","44.4666498906921","12.2850480059303","0",""
"713470","Della Pace-Alma","44.4636659932651","12.2859942149326","0",""
"713490","Villa Marina","44.4614571044899","12.2866937826972","0",""
"713533","Semaforo Trieste-Iv Novembre","44.4838028121445","12.2748883499547","0",""
"713610","Scuola Media","44.4836458430533","12.2740992114257","0",""
"714010","Volano-Mesola","44.493379632293","12.2725188270062","0",""
"714030","Volano-Ottino","44.4935955794076","12.2748341190365","0",""
"714050","Po","44.4938942442771","12.2778089016659","0",""
"714070","Sirotti","44.4935319450429","12.2798163755422","0",""
"714090","Traghetto","44.4929050943025","12.2788868426625","0",""
"714110","S.Filippo-Ottino","44.4924919188331","12.2751479001141","0",""
"714130","S.Filippo-Goro","44.4926449977685","12.2699783209312","0",""
"714150","Baiona-Maneggio","44.4967445176745","12.2703351220474","0",""
"714170","Vill. Del Sole","44.4998959587263","12.2709365764151","0",""
"714190","Vill. Del Sole","44.4999536653265","12.2708549008081","0",""
"714210","Baiona-Maneggio","44.49637332893","12.270052746963","0",""
"715010","Italia-Roveri","44.5054613371706","12.2727484304146","0",""
"715030","Italia-Bar King","44.5075059929835","12.2731045020314","0",""
"715050","P.Zza Italia","44.5109420689035","12.2736593221295","0",""
"715070","Italia-Mimose","44.5135078527909","12.2740916460531","0",""
"715090","Italia-Ferrara","44.5151525479727","12.2743314596679","0",""
"715110","Italia-Olmi","44.5168312799012","12.2745170307559","0",""
"715130","Italia-Dei Fiori","44.5186681793792","12.2747902638486","0",""
"715150","Italia-Meridiana","44.5212475770442","12.2750918204552","0",""
"715170","Delle Valli","44.5239420506322","12.2754034266632","0",""
"715190","Delle Valli","44.5236483911559","12.2752249186551","0",""
"715210","Hotel Meridiana","44.5208223324768","12.2748439548827","0",""
"715230","Italia-Dei Fiori","44.5186503709516","12.27457453028","0",""
"715250","Italia-Olmi","44.5166760831135","12.2742759491859","0",""
"715270","Italia-Ferrara","44.5155555917981","12.2741728737218","0",""
"715290","Italia-Mimose","44.5134562708175","12.2738914266116","0",""
"715310","P.Zza Italia","44.5105614937302","12.2733696202937","0",""
"715330","Italia-Bar King","44.5078646297466","12.2729731019528","0",""
"715350","Italia-Roveri","44.5054552668532","12.2725439366989","0",""
"716010","Camping Romea","44.5293360303506","12.276301393796","0",""
"716030","Camping Reno","44.5349403701845","12.2770858205996","0",""
"716050","Lido Carabiniere","44.5389776392843","12.2779368051193","0",""
"716070","Camping Pineta","44.5411871368218","12.2784032801287","0",""
"716090","Centro Sportivo","44.5498136316464","12.2772699352987","0",""
"716110","Ortolani","44.5500958318195","12.2789777303874","0",""
"716131","Ciceruacchio","44.5513135711651","12.2823293161513","0",""
"716140","Canale","44.5533013569765","12.2808700966717","0",""
"716160","Porto Reno","44.5558128460909","12.277361978194","0",""
"716171","Bar S.Marino","44.5533402243077","12.279367119647","0",""
"716190","Gardenie","44.5560862855028","12.2796905083386","0",""
"716200","Porto Reno","44.5562086794009","12.2767446109032","0",""
"716210","Baronia","44.5526757883357","12.2777463018552","0",""
"716230","Centro Sportivo","44.5499446120671","12.2770557202525","0",""
"716250","Camping Pineta","44.5410322566936","12.278112632694","0",""
"716270","Lido Carabiniere","44.538941621803","12.2776864027903","0",""
"716290","Camping Reno","44.5347941044741","12.2768292469776","0",""
"716310","Camping Romea","44.5293431496929","12.2760534675046","0",""
"717100","V.Marabina-Bosca","44.3948991944565","12.2635377694327","0",""
"717110","V.Marabina-Montebello","44.3984639537924","12.2477150086226","0",""
"717120","V.Marabina-Trattoria","44.3939555720818","12.2684564884879","0",""
"717140","V.Marabina-Villa Berta","44.3923550110123","12.2762837216337","0",""
"717160","Candianazzo","44.3887547906322","12.2956356273855","0",""
"717260","Novello","44.3861155619173","12.3129178608524","0",""
"717290","L. Dante Agenzia","44.3883327496162","12.314811986213","0",""
"717300","Catone","44.3863903759076","12.3156290262806","0",""
"718511","Dogana Sapir","44.4458390333005","12.2558144143965","0",""
"718531","Orioli","44.4445791880231","12.2599069924339","0",""
"718551","Muti","44.4481109325485","12.2596433637164","0",""
"718590","Metalsider","44.4519822791486","12.2529500236098","0",""
"718610","Docks Cereali","44.456958012391","12.2553155742838","0",""
"718650","Saipem","44.4632068431005","12.2581921231112","0",""
"718670","Docks Cererali","44.4568905667831","12.2551838334889","0",""
"718690","Metalsider","44.4520765618884","12.2525480506432","0",""
"718730","Bar Dogana","44.4457295343542","12.2521150298552","0",""
"719030","Baiona Degussa","44.4516795191896","12.2301135605564","0",""
"719050","Baiona Cabot","44.4568222388176","12.232461978093","0",""
"719090","Baiona Banchine","44.462790665551","12.237814589009","0",""
"719110","Marcegaglia","44.4671952171108","12.2418535014532","0",""
"719140","Largo Trattaroli","44.4731825087801","12.2477266558879","0",""
"719150","Cementificio","44.4777929365674","12.2531367015441","0",""
"719160","Alma Petroli","44.4805356419347","12.2562271716105","0",""
"719180","Baiona-Bunge","44.4871112676971","12.2622011634604","0",""
"719230","Baiona-Bunge","44.4861903455178","12.261355134364","0",""
"719250","Alma Petroli","44.4810440648466","12.2564836238911","0",""
"719260","Cementificio","44.4777954684642","12.2524951968857","0",""
"719270","Largo Trattaroli","44.4724976483811","12.2463735817836","0",""
"719280","Marcegaglia","44.4666484250942","12.2410686409488","0",""
"719290","Baiona-Banchine","44.4627621546359","12.2375097085812","0",""
"719310","Baiona-Lonza","44.4586900097841","12.2334099063652","0",""
"719330","Baiona-Cabot","44.4566118629657","12.2320884531647","0",""
"719350","Baiona-Degussa","44.4518909475266","12.2299375450167","0",""
"719370","Air Liquide","44.4494431872269","12.2288909642261","0",""
"719500","Bunge","44.4845877146974","12.2627558859392","0",""
"720000","S.Alberto Piazza","44.5430525157713","12.1547338736074","0",""
"720010","S.Alberto Piazza","44.5429600494621","12.1543663435402","0",""
"720020","Guerrini","44.5390990959386","12.1597823364053","0",""
"720030","Guerrini","44.5392920249654","12.1597303281912","0",""
"720040","Taparelli","44.5390957722984","12.1541460859571","0",""
"720050","Taparelli","44.5390342924028","12.1540660580161","0",""
"720060","Cavedone","44.5413877049969","12.1479950432155","0",""
"720070","Cavedone","44.5414517260428","12.1476662727551","0",""
"720080","Cimitero","44.5399745739281","12.1419777258077","0",""
"720090","Cimitero","44.5394638177932","12.1405178129913","0",""
"720100","S.Alberto,259","44.5358283526125","12.1621005862907","0",""
"720110","S.Alberto,280","44.536097500439","12.162000996738","0",""
"720130","Scuola Media","44.5404530333716","12.1569320875994","0",""
"720140","Madonna","44.536920329477","12.1655458497855","0",""
"720150","Madonna","44.5368162713531","12.1656970224264","0",""
"720160","Crociaio","44.532676140383","12.1698508956539","0",""
"720170","Crociaio","44.5329306214323","12.1699822333483","0",""
"720180","Chiavichino","44.5276959533355","12.1692950045943","0",""
"720190","Chiavichino","44.5279440629924","12.1694216115801","0",""
"720220","Fosso Nuovo","44.5012923919769","12.1719609464642","0",""
"720230","Fosso Nuovo","44.5017597952833","12.172057697695","0",""
"720300","S.Romualdo","44.4953729554802","12.1733327256642","0",""
"720310","S.Romualdo","44.4955294835078","12.173401596002","0",""
"720320","Paltanella","44.4876672023636","12.1754261890188","0",""
"720330","Paltanella","44.4879861965222","12.1755077549253","0",""
"720340","Carlina","44.4841897371083","12.1763621391203","0",""
"720350","Carlina","44.4848793866665","12.1763195192419","0",""
"720360","Ca Bosco","44.4804239128929","12.1777983835684","0",""
"720370","Ca Bosco","44.4806430192558","12.1777995534044","0",""
"720380","S.Alberto-Delta","44.4687057831397","12.1819014418885","0",""
"720390","S.Alberto-Delta","44.4690672330471","12.181948097771","0",""
"720400","S.Alberto,324","44.4638047504219","12.1835524213511","0",""
"720410","S.Alberto,324","44.463915226811","12.1836541341267","0",""
"720420","S.Alberto Agip","44.4590289343761","12.1859135879133","0",""
"720430","S.Alberto Agip","44.4590668245527","12.1860928971156","0",""
"720440","S.Alberto Tomba","44.4527449251914","12.1897604874244","0",""
"720450","S.Alberto Tomba","44.453065535519","12.1897188909941","0",""
"720460","Tre Ponti","44.4477133942204","12.1932246967105","0",""
"720470","Tre Ponti","44.4479569736411","12.1932046677685","0",""
"720500","Mandriole,59","44.5361805400283","12.1700476555071","0",""
"720510","Mandriole,59","44.5359438915052","12.1706590877246","0",""
"720520","Gattolosuperiore","44.5359072079575","12.1762504773243","0",""
"720530","Gattolosuperiore","44.5359236782873","12.1766289647065","0",""
"720540","Ponte Zanzi","44.540090472982","12.191708732199","0",""
"720560","Casetti I","44.5423878764233","12.1990253307015","0",""
"720580","Casetti","44.545165357861","12.2086155359382","0",""
"720600","Casetti Ii","44.5471145709827","12.2129273795332","0",""
"720620","Mandriole Molino","44.5511399774655","12.2211812658537","0",""
"720640","Mandriole Scuole","44.5547737022077","12.228621425759","0",""
"720650","Cimitero","44.551901494429","12.2222682693225","0",""
"720660","Pompe Anic","44.5583747664971","12.2356132985193","0",""
"720680","Anita Garibaldi","44.5620808079104","12.2432623643056","0",""
"720720","V. Scariolanti","44.5634381965697","12.2562523214425","0",""
"720730","V. Scariolanti","44.5623285397726","12.2577535966883","0",""
"720800","Basilica Ii","44.5389346273572","12.1326526535635","0",""
"720810","Basilica Ii","44.5387441620633","12.1316222679579","0",""
"720820","Cilla","44.5336937655361","12.1240370201498","0",""
"720830","Cilla","44.5336564663956","12.1238210639361","0",""
"720840","Della Bassa","44.5273690984416","12.1152292218917","0",""
"720850","Della Bassa","44.5271807115396","12.1147761969662","0",""
"721000","Mezzano Piazza","44.4669162541225","12.0865190642241","0",""
"721010","Mezzano Piazza","44.4671021759912","12.0863352692898","0",""
"721020","Mezzano Gommista","44.4649856941452","12.0897955300666","0",""
"721030","Mezzano Gommista","44.4652290376991","12.0896181143529","0",""
"721050","Scuola Media","44.4640129640565","12.0900441756286","0",""
"721060","Mezzano Fs","44.4614149310182","12.0959110540036","0",""
"721070","Mezzano Fs","44.4616749947287","12.0956515615226","0",""
"721080","Borgo Anime","44.4590372825834","12.1000172173666","0",""
"721090","Borgo Anime","44.4592215689263","12.0998823027602","0",""
"721120","Reale-Piangipane","44.4533991343184","12.1106764349265","0",""
"721130","Reale-Piangipane","44.453592002457","12.1104823523689","0",""
"721160","Camerlona Bar","44.4476614773491","12.1251101829017","0",""
"721170","Camerlona Bar","44.4483050981372","12.1237128888865","0",""
"721180","Sacrario","44.4438715120204","12.1335899388365","0",""
"721190","Sacrario","44.4442121746397","12.1332730037381","0",""
"721200","Ammonite,Fr.18","44.4628409201584","12.0859544373153","0",""
"721210","Ammonite,16","44.4633752248575","12.0865080564545","0",""
"721240","Zuccherificio","44.4695929095922","12.0962725473481","0",""
"721250","Zuccherificio","44.4695044407189","12.0963561969746","0",""
"721260","Mezzano Tozzi","44.4661612536261","12.0922500912645","0",""
"721270","Mezzano Tozzi","44.4663299655184","12.0925123451386","0",""
"721300","Sant'Antonio","44.459034935251","12.1658274018672","0",""
"721320","Guiccioli,33","44.4583839626639","12.1650083727567","0",""
"721330","Guiccioli,Fr.33","44.4583609827777","12.1650637438139","0",""
"721360","Ferragu","44.4521125938187","12.1651258976249","0",""
"721370","Ferragu","44.4522131412692","12.1651957338517","0",""
"721380","Canalazzo,120","44.4403740995809","12.1705432275186","0",""
"721390","Canalazzo,177","44.4403885129148","12.1706106064313","0",""
"721400","Canalazzo,Fr.147","44.4384480784885","12.1723558125596","0",""
"721410","Canalazzo,145","44.4385128303094","12.1723918766093","0",""
"721500","Basilica-Baronia","44.5200328881762","12.1079046913185","0",""
"721510","Basilica-Baronia","44.5198166409586","12.1075447133675","0",""
"721520","Carabinieri","44.5148165794717","12.103880289282","0",""
"721530","Carabinieri","44.514956142519","12.1041159900179","0",""
"721540","Salvemini","44.5122526419167","12.1061974159848","0",""
"721550","Salvemini","44.5125500429044","12.1056019263801","0",""
"721560","Savarna Piazza","44.509163936737","12.1104590652304","0",""
"721570","Savarna Piazza","44.5095879629884","12.1102275087435","0",""
"721600","Martiri","44.5086780969223","12.1082765007914","0",""
"721610","Martiri","44.5087042472821","12.1081764301254","0",""
"721640","Grattacoppa","44.5027293788601","12.1118645947617","0",""
"721650","Grattacoppa","44.5030939478962","12.1120631240944","0",""
"721660","Di Mezzo","44.4972072311175","12.1107094899994","0",""
"721670","Di Mezzo","44.4972040011408","12.1107457440745","0",""
"721680","Torri","44.4915314379478","12.1053453174824","0",""
"721690","Torri","44.4918074133509","12.1055098923312","0",""
"721720","Montagnola","44.4804824496155","12.1132828183363","0",""
"721730","Montagnola","44.4806119449675","12.1136179046537","0",""
"721740","Borgo Masotti","44.4745275872784","12.1054804287268","0",""
"721750","Borgo Masotti","44.4744291490432","12.1056192030025","0",""
"721800","Scolo Pignatta I","44.5028758585286","12.1058863567055","0",""
"721810","Scolo Pignatta I","44.5027208720079","12.1061297671343","0",""
"721820","S. Pignatta Ii","44.5043204339362","12.1016886974651","0",""
"721830","S. Pignatta Ii","44.5041364191365","12.1019468368","0",""
"721840","Bv. S. Pignatta","44.5038115023652","12.1003873491081","0",""
"721850","Bv. S. Pignatta","44.5038023384859","12.1004993106618","0",""
"721860","Pizzeria","44.500786917861","12.0957362655369","0",""
"721870","Pizzeria","44.500845713036","12.0964890772104","0",""
"721880","Beltrami","44.4958370393189","12.0804462346113","0",""
"721890","Beltrami","44.4958724649131","12.0806342772248","0",""
"721910","Basilica P.L.","44.4900972286076","12.0712220407849","0",""
"721930","Reale-Basilica","44.4861321069675","12.069129183592","0",""
"721950","Glorie Fs","44.4803090261173","12.0696417100843","0",""
"721970","Glorie-Aguta","44.4768817468269","12.0732213763142","0",""
"721990","Glorie-Bar Reale","44.4716009390938","12.0800637895663","0",""
"722000","Chiesa","44.4160908055532","12.0860904638538","0",""
"722010","Chiesa","44.4161039475568","12.0862917216284","0",""
"722100","Braccesca,Fr.40","44.4145693017253","12.0913963757251","0",""
"722110","Braccesca","44.4147214850344","12.0912766795496","0",""
"722120","Braccesca Cofar","44.4120336554656","12.1006793620085","0",""
"722130","Braccesca Cofar","44.4121603285244","12.1006559181342","0",""
"722300","Ravaglia","44.4190169224504","12.0892410783601","0",""
"722310","Ravaglia","44.4191591646387","12.0894949220124","0",""
"722320","Rubboli","44.4209736076081","12.0909757686578","0",""
"722330","Rubboli","44.4211105190769","12.0912383352855","0",""
"722340","Cooperativa","44.4243278002935","12.0939363249768","0",""
"722350","Cooperativa","44.4244103913112","12.0941786291413","0",""
"722360","Fusari","44.4274579850807","12.0964877072267","0",""
"722370","Fusari","44.4275107817525","12.0967041916199","0",""
"722400","Canala Ii","44.4339282841182","12.076317149996","0",""
"722410","Canala Ii","44.4341071122989","12.0760953546859","0",""
"722460","Canala-Cantalupo","44.4352172658234","12.0656194102559","0",""
"722470","Canala-Cantalupo","44.43541256832","12.065051652856","0",""
"722480","Santerno-Canala","44.4360563377101","12.0603860733597","0",""
"722490","Santerno-Canala","44.4362378282652","12.0600638413035","0",""
"722500","Santerno Piazza","44.4355071625122","12.0591109591582","0",""
"722540","Ammonite,227","44.4410648615811","12.0599567120442","0",""
"722550","Ammonite,Fr.223","44.4414260064098","12.0601243432257","0",""
"722580","Ammonite,Fr.116","44.4468140256661","12.0645785130641","0",""
"722590","Ammonite,116","44.4470175891574","12.0648134767893","0",""
"722620","Ammonite,181","44.45090827205","12.0700049336359","0",""
"722630","Ammonite,Fr.179","44.4508570149299","12.0702036806454","0",""
"722660","Ammonite,103","44.4559826964507","12.0781093730822","0",""
"722670","Ammonite-Taroni","44.4560079270068","12.0782377521473","0",""
"722680","Ammonite,33","44.4588313144042","12.0817939177568","0",""
"722690","Ammonite,24","44.4590410815166","12.0821621010104","0",""
"723060","Stanghellini","44.3998032644869","12.0950643815759","0",""
"723070","Stanghellini","44.3997362052613","12.0945743946396","0",""
"723300","Braccesca,Fr.68","44.4095291164205","12.1060428028284","0",""
"723310","Braccesca","44.4098497836308","12.105904055741","0",""
"723500","San Michele","44.40555707544","12.1112408200855","0",""
"723510","San Michele","44.4056291156395","12.1112011402277","0",""
"723550","San Michele","44.4063525509194","12.1127992870435","0",""
"723600","Faentina-Vivaio","44.4146987147938","12.1303330220709","0",""
"723610","Faentina-Vivaio","44.4147984062903","12.1302543674591","0",""
"724040","B.Montone Scuola","44.3963694718518","12.1738193730087","0",""
"724050","B.Montone Scuola","44.3965766398232","12.1737996059909","0",""
"724060","Carraia Madonna","44.3942698954623","12.1724012193907","0",""
"724070","Carraia Madonna","44.3939379304544","12.1720367266591","0",""
"724080","Chiusa S.Marco","44.3902619165453","12.1682547701498","0",""
"724090","Chiusa S.Marco","44.3903091310537","12.1681741804177","0",""
"724100","Lovatelli","44.387688611691","12.1645915647852","0",""
"724110","Lovatelli","44.3876040478056","12.164372536266","0",""
"724270","San Marco Piazza","44.3720075830897","12.139629935543","0",""
"724290","Chiesa","44.3702285745643","12.1335275091588","0",""
"724300","S.Marco Cimitero","44.3695612879054","12.1340918142138","0",""
"724310","S.Marco Cimitero","44.3695167212279","12.1338133225044","0",""
"724320","Godo,78/A","44.3706514129289","12.130979667976","0",""
"724330","Godo,Fr.78/A","44.3707121380246","12.1306038710608","0",""
"724340","Godo","44.3729919607861","12.1253359034539","0",""
"724350","Godo","44.37277003379","12.1255500119678","0",""
"724360","Godo,70","44.3746698862636","12.1222179014188","0",""
"724370","Godo,Fr.70","44.3747211511691","12.1219561637241","0",""
"724400","Godo Fontana","44.3735718929738","12.1052503251738","0",""
"724410","Godo Fontana","44.3737155189214","12.1050309770911","0",""
"724500","Villanova-Godo","44.3751756143366","12.1136646296325","0",""
"724510","Villanova-Godo","44.3753067937522","12.1134576667986","0",""
"724520","S.Giuseppe","44.3776130177173","12.115392006791","0",""
"724530","S.Giuseppe","44.3776700636384","12.115322230995","0",""
"724540","Villanova Di Ra","44.3829441120141","12.1179139735668","0",""
"724550","Villanova Di Ra","44.3828188303284","12.117714516318","0",""
"724560","Villanova,42","44.3859505921632","12.1198644521636","0",""
"724570","Villanova,Fr.42","44.3857189419045","12.1195784576378","0",""
"724580","Villanova,27/30","44.3889306170199","12.1215043636344","0",""
"724590","Villanova,27","44.3886051524913","12.1212911959277","0",""
"724700","Viazza Di Sotto","44.3858495610386","12.1588771583394","0",""
"724710","Viazza Di Sotto","44.3857020907567","12.159326186726","0",""
"724800","Centro Sociale","44.3934427464437","12.1255814655369","0",""
"724810","Centro Sociale","44.3932560381694","12.1263959358985","0",""
"725000","Coccolia","44.2964386043644","12.1100832142818","0",""
"725010","Coccolia","44.2952770629267","12.1094130229472","0",""
"725020","Taverna","44.2988912065589","12.1083320496408","0",""
"725030","Taverna","44.2986883881183","12.1082109519587","0",""
"725040","Taverna,Fr.60","44.306477460652","12.0893689716182","0",""
"725050","Taverna,60","44.3063233082341","12.0892063215278","0",""
"725080","Scuola","44.3140299310901","12.0809546794823","0",""
"725090","Scuola","44.3138508371981","12.0804735822412","0",""
"725100","S.P. In Trento","44.3181859183891","12.0823633547493","0",""
"725110","S.P. In Trento","44.3179218596081","12.0824393885858","0",""
"725200","Filetto Pesa","44.3233766928955","12.0629804573896","0",""
"725210","Filetto Pesa","44.3232961914189","12.0626889445063","0",""
"725220","Casa Bersaglieri","44.3306560791234","12.0682191589046","0",""
"725230","Casa Bersaglieri","44.3304048379595","12.0676446454555","0",""
"725240","Filetto","44.3336526009315","12.0710395459596","0",""
"725250","Filetto","44.3339213593556","12.0709889639329","0",""
"725280","Filetto Chiesa","44.337427248818","12.0757932286747","0",""
"725290","Filetto Chiesa","44.3376378921604","12.0755935153738","0",""
"725320","Pilastro","44.3406995971486","12.0872996148964","0",""
"725330","Pilastro","44.3408070689782","12.0867419140792","0",""
"725340","Roncalceci,Fr.9","44.3439613053926","12.0956785678536","0",""
"725350","Roncalceci,9","44.3441491069183","12.0955598602044","0",""
"725380","Babini,249","44.3415270741894","12.1084857490119","0",""
"725390","Babini,Fr.249","44.3417711367147","12.1083462527339","0",""
"725400","Sp.5-Roncalceci","44.3451832621719","12.110889640461","0",""
"725410","Sp.5-Roncalceci","44.3449584880449","12.1116053705087","0",""
"725420","Ragone,21","44.3477929391202","12.1044191789907","0",""
"725430","Ragone,Fr.21","44.3476203964192","12.1048360466519","0",""
"725440","Ragone Canale","44.3485811465807","12.0994317661018","0",""
"725450","Ragone Canale","44.3483566524906","12.0996758639244","0",""
"725460","Ragone","44.3536732237074","12.0885033592879","0",""
"725470","Ragone","44.3535885667676","12.0887347204447","0",""
"725620","Chiesa","44.3462533700728","12.1154878010394","0",""
"725630","Chiesa","44.3467016203691","12.1155567314445","0",""
"725640","Roncalceci","44.3495571066174","12.1185285532263","0",""
"725650","Roncalceci","44.3496013854604","12.1183577641695","0",""
"725670","Roncalceci Scuole","44.3499933084789","12.1200886898072","0",""
"725700","S.Babini,108","44.3496774937951","12.1280740727537","0",""
"725740","Bv. S.P. Trento","44.3233490079425","12.1200278445827","0",""
"725750","Bv. S.P. Trento","44.3230213963359","12.1196171290383","0",""
"725760","Bv. Roncalceci","44.3349261979846","12.1270091578148","0",""
"725770","Bv. Roncalceci","44.3350626404709","12.1269037162776","0",""
"725780","Ghibullo-Babini","44.3465793422668","12.1407964804873","0",""
"725800","Ghibullo","44.3453453257941","12.1419409918765","0",""
"725810","Ghibullo","44.3453678375467","12.1416991658768","0",""
"725820","Longana","44.3554573311016","12.1538596721913","0",""
"725830","Longana","44.3554567880381","12.1536187297965","0",""
"725840","Chiusa S.Bartolo","44.3682859008391","12.1724881676044","0",""
"725850","Chiusa S.Bartolo","44.3682562809046","12.1722576150595","0",""
"725860","Ravegnana","44.3826216784192","12.1928887636733","0",""
"725870","Ravegnana","44.3827584721124","12.1929225684854","0",""
"726000","S.P. In Vincoli","44.300795927227","12.1457215062346","0",""
"726010","S.P. In Vincoli","44.3011784314559","12.1454599335298","0",""
"726020","Bv. Castello","44.2980025086714","12.1486659706081","0",""
"726030","Bv. Castello","44.2978722142983","12.1489056374904","0",""
"726040","Missionari","44.3054561777864","12.1445288810225","0",""
"726200","Sp.3-Fagiolo","44.3137401048278","12.1385894760183","0",""
"726240","Gambellara","44.3297694402354","12.1371477441301","0",""
"726260","Gambellara P.Zza","44.3298122408226","12.1366040207825","0",""
"726300","Sp.3-Ex Cantina","44.3391727452555","12.1403959644803","0",""
"726500","Del Sale,45","44.2926436707948","12.1677952043037","0",""
"726510","Del Sale,Fr.45","44.2930214511081","12.1669079632436","0",""
"726520","Concessionaria","44.2938167418981","12.1580316687515","0",""
"726530","Concessionaria","44.2938921851588","12.1574852828672","0",""
"726600","Castello-Bissi","44.2889001559906","12.1523477560287","0",""
"726680","Ducenta","44.2815737154607","12.1489540402287","0",""
"726690","Ducenta","44.2814513197904","12.1487930045233","0",""
"726700","Massa Castello,8","44.2772805830383","12.1527132205301","0",""
"726710","Massa Castello,8","44.2770581318608","12.1522877219893","0",""
"726720","Di Massa,20/C","44.2719747789192","12.1468962669425","0",""
"726730","Di Massa,Fr.20/C","44.2718107717198","12.1463110150059","0",""
"726740","Massa","44.2672388329517","12.1415463657069","0",""
"726750","Massa","44.2676789446692","12.1415900270624","0",""
"726760","Sp.100-Romagnoli","44.2620296990956","12.1332014743938","0",""
"726770","Sp.100-Romagnoli","44.2619563413566","12.1329616219343","0",""
"726800","Budria-Senni","44.2861726556023","12.1391351665452","0",""
"726810","Budria-Senni","44.2863059774893","12.1388994886195","0",""
"726820","Budria,Fr.24","44.2845981723329","12.1425339298868","0",""
"726830","Budria,20","44.2843084399528","12.1427182834676","0",""
"726840","Ducenta-Budria","44.2825712529212","12.1471114125156","0",""
"726850","Ducenta-Budria","44.2822537988288","12.1472909740637","0",""
"726880","Budria-Celletta","44.2909287790259","12.1280750396178","0",""
"726890","Budria-Celletta","44.29068956938","12.1282288282173","0",""
"727000","Cella,Fr.125/127","44.371597053303","12.1960418625606","0",""
"727010","Cella,125/127","44.3718442238498","12.1961992041364","0",""
"727020","Cella,142","44.3678816906562","12.1912487472631","0",""
"727030","Cella,173","44.3682437247729","12.1916088136456","0",""
"727040","S.Bartolo Banca","44.3630233770774","12.184757822368","0",""
"727050","S.Bartolo Banca","44.3628946246461","12.1844615946064","0",""
"727060","S.Bartolo","44.3608060727753","12.1826513350368","0",""
"727070","S.Bartolo","44.3608396179494","12.182553804774","0",""
"727100","Cella-Trova","44.3515818858283","12.1771384994834","0",""
"727110","Cella-Trova","44.3515666775606","12.1770703763857","0",""
"727120","Cella-Viazza","44.3439631906833","12.1800389197453","0",""
"727130","Cella-Viazza","44.3441832512784","12.1799743030147","0",""
"727140","Cella-Cardinala","44.3334098839213","12.1812164562005","0",""
"727150","Cella-Cardinala","44.3337206800534","12.1810476400796","0",""
"727180","S.Stefano-Lunga","44.3165846751131","12.1878349189439","0",""
"727190","S.Stefano-Lunga","44.3164393944529","12.1882659177372","0",""
"727200","S.Stefano","44.3157328337031","12.1856495898856","0",""
"727210","S.Stefano","44.3163384324013","12.1858769835692","0",""
"727220","S.Stefano Chiesa","44.3133972131534","12.1840485722112","0",""
"727230","S.Stefano Chiesa","44.312593833996","12.1833086324375","0",""
"727240","Carraie Ponte","44.3090765053381","12.1812520448317","0",""
"727250","Carraie Ponte","44.308934966472","12.1810066978672","0",""
"727260","Castaldella","44.3059762766824","12.1803372263646","0",""
"727270","Castaldella","44.3058705536398","12.1801680078982","0",""
"727280","Carraie","44.304135677204","12.1798365794216","0",""
"727290","Carraie","44.3039605276433","12.1796536193603","0",""
"727300","Cimitero","44.3010377519544","12.182850327903","0",""
"727310","Cimitero","44.3008223000011","12.1829741700713","0",""
"727320","Arrigoni,46","44.2975277607439","12.186612088868","0",""
"727330","Arrigoni,73","44.297326197423","12.1866728667985","0",""
"727340","Campiano Edicola","44.2991438611028","12.1967237503641","0",""
"727350","Campiano Edicola","44.2991024677789","12.1963273474539","0",""
"727360","Campiano","44.2994895315432","12.1982259743792","0",""
"727380","Borgo Muratore","44.294277877532","12.1866796473255","0",""
"727390","Borgo Muratore","44.2942053762291","12.1863300731032","0",""
"727400","S.P. In Campiano","44.2888146029346","12.1792758649008","0",""
"727410","S.P. In Campiano","44.2884564344812","12.1787221568142","0",""
"727420","Consorzio","44.2893423203219","12.175703619273","0",""
"727430","Consorzio","44.2898122739701","12.1749239635751","0",""
"727440","Sale-Quasimodo","44.2870925903181","12.1795610825908","0",""
"727450","Sale-Quasimodo","44.2873966658372","12.1793730176305","0",""
"727500","Petrosa,318","44.2569768267635","12.1690589863083","0",""
"727510","Petrosa,Fr.318","44.256620882942","12.168779299311","0",""
"727520","Bastia","44.2617070658534","12.1681940094888","0",""
"727530","Bastia","44.2613690353775","12.1679321660362","0",""
"727540","Petrosa,252","44.2669800360411","12.1643768425051","0",""
"727550","Petrosa,507","44.2665577846782","12.1645728153283","0",""
"727560","Borgo Papale","44.2727928185189","12.1627454142844","0",""
"727570","Borgo Papale","44.2724362557544","12.1625053961685","0",""
"727580","Petrosa,218","44.2794736371608","12.1640566375716","0",""
"727590","Petrosa,441","44.2792147829623","12.1634984108264","0",""
"727600","Petrosa","44.2827279938891","12.1697795686171","0",""
"727610","Petrosa","44.2823706812525","12.1688361056855","0",""
"727620","S.P. In Campiano","44.2876620802035","12.1779499990062","0",""
"727630","S.P. In Campiano","44.2874695932464","12.1775853388351","0",""
"727660","Petrosa-Lunga","44.3169995958154","12.2030450409883","0",""
"727670","Petrosa-Lunga","44.3173533057026","12.2029220432311","0",""
"727700","Erbosa-Dell'Osso","44.2573071614066","12.1806898788492","0",""
"727710","Erbosa-Dell'Osso","44.2577112383641","12.1810573545063","0",""
"727720","Erbosa-Gambona","44.2667624427053","12.1839070799886","0",""
"727730","Erbosa-Gambona","44.266775941401","12.184121060114","0",""
"727740","Erbosa,48","44.2706187833833","12.1854835658704","0",""
"727750","Erbosa,Fr.48","44.2706580334658","12.1857318537405","0",""
"727960","Del Sale-Erbosa","44.2808931403255","12.1918280335187","0",""
"727970","Del Sale-Erbosa","44.2811256973709","12.1918406372966","0",""
"728040","Chiusaroli","44.3514358737264","12.2136280067084","0",""
"728050","Chiusaroli","44.3512648556991","12.2134213631968","0",""
"728080","Osteria","44.3329333830098","12.2122403081925","0",""
"728090","Osteria","44.3328462472791","12.2120900702631","0",""
"728120","Dismano,22","44.326952413451","12.2120915345065","0",""
"728130","Dismano,22","44.3266408586721","12.2118528244834","0",""
"728140","Bv. S.Stefano","44.3173406422372","12.2116207554557","0",""
"728150","Bv. S.Stefano","44.3173353532016","12.2107444555618","0",""
"728210","Bv. Dismano","44.286296209072","12.2127924146935","0",""
"728220","Bv. S.Zaccaria","44.2794713239451","12.2132815838805","0",""
"728230","Bv. S.Zaccaria","44.2790445078163","12.2130928855609","0",""
"728240","Ponte Vecchia","44.2775778555628","12.2148549198358","0",""
"728250","Ponte Vecchia","44.2775564055809","12.2148212438953","0",""
"728280","Ca Mengozzi","44.2672799149591","12.233040095523","0",""
"728290","Ca Mengozzi","44.2660170378125","12.2342094714815","0",""
"728340","Torres Iii","44.290942061242","12.2696476948116","0",""
"728350","Torres Iii","44.290699365574","12.2695088786896","0",""
"728360","Guarniera","44.2863007711698","12.2687507786632","0",""
"728370","Guarniera","44.2859680410229","12.2685493299485","0",""
"728380","Torres V","44.2735684856914","12.2634907561332","0",""
"728390","Torres V","44.2729719299336","12.2633850331445","0",""
"728400","Torres I","44.2704171160413","12.2608604241878","0",""
"728410","Torres I","44.2703631541085","12.2606694970249","0",""
"728470","Scuole","44.2592732729534","12.2512794679953","0",""
"728480","Pizzeria","44.2645227394921","12.2580661793173","0",""
"728490","Pizzeria","44.2642721797382","12.2578869551845","0",""
"728500","Castiglione Ra","44.2606880106548","12.2560327034828","0",""
"728510","Castiglione Ra","44.260560047962","12.2558477464052","0",""
"728520","Bv. Cervese","44.2588973759709","12.2547387086305","0",""
"728530","Bv. Cervese","44.2586574574475","12.2545113126903","0",""
"728540","Bv. Castiglione","44.258320992021","12.2524459317601","0",""
"728550","Bv. Castiglione","44.2581644857142","12.252846781183","0",""
"728560","Bv. Castiglione","44.2583200836619","12.2564502823985","0",""
"728570","Bv. Castiglione","44.2580004467265","12.2573155848069","0",""
"728580","Caduti","44.2592533434404","12.2575713752926","0",""
"728590","Caduti","44.2593318200785","12.2579393190883","0",""
"728600","Distributore","44.2770135177301","12.2133479908755","0",""
"728610","Distributore","44.2765634738159","12.2132737799133","0",""
"728620","Molino","44.2743012716668","12.2133704458011","0",""
"728630","Molino","44.2748142459068","12.2132921092167","0",""
"728640","Novara","44.2687977454406","12.2137368155576","0",""
"728650","Novara","44.2686079536774","12.213571103692","0",""
"728660","S.Zaccaria","44.2671421020426","12.2137617748895","0",""
"728670","S.Zaccaria","44.2671337139402","12.2136511703445","0",""
"728680","Chiesa","44.2625650507718","12.2140417791145","0",""
"728690","Chiesa","44.2625604981309","12.2139533066602","0",""
"728700","Del Sale","44.2737644942109","12.2126035639976","0",""
"728710","Del Sale","44.2738674948932","12.2123740425105","0",""
"728760","Casemurate","44.2474853925371","12.2148544184495","0",""
"728770","Casemurate","44.2478081363328","12.2147017392775","0",""
"728840","Casa Battistini","44.2234577883861","12.2159736723959","0",""
"728850","Casa Battistini","44.221970699977","12.2155755232617","0",""
"728870","Santa Croce","44.2207833339611","12.2152347816265","0",""
"728900","Cervese-Ariona","44.2506763237137","12.2462463421641","0",""
"728910","Cervese-Ariona","44.2510713465003","12.246425724138","0",""
"728920","Cervese Ii","44.2480119777095","12.2432787150294","0",""
"728930","Cervese Ii","44.2482259611914","12.2432781616991","0",""
"728940","Matellica I","44.2446507060794","12.2394584250442","0",""
"728950","Matellica I","44.2446902688746","12.2393275947392","0",""
"728980","Matellica","44.2338599472475","12.2352031407657","0",""
"728990","Matellica","44.2339318770929","12.2350793652893","0",""
"729000","F. Ghiaia Chiesa","44.3546677670685","12.2567332615624","0",""
"729010","F. Ghiaia Chiesa","44.3546591435681","12.2566148382116","0",""
"729040","F. Ghiaia Scuole","44.3493806331963","12.2600610069005","0",""
"729050","F. Ghiaia Scuole","44.3495845244002","12.2597937935584","0",""
"729060","F. Ghiaia Hotel","44.3471789264544","12.2617504488678","0",""
"729070","F. Ghiaia Hotel","44.3473757737401","12.2614778416664","0",""
"729200","Mirabilandiass16","44.3411717503149","12.2663043421911","0",""
"729210","Mirabilandiass16","44.3423970167473","12.2652659996671","0",""
"729220","Mirabilandia","44.3358965313614","12.2667963954823","0",""
"729240","Standiana","44.3323876419054","12.2699276898195","0",""
"729260","Adriatica Bevano","44.3262934649493","12.278314983324","0",""
"729270","Adriatica Bevano","44.3270085078496","12.2776174154775","0",""
"729280","Savio Fs","44.313570068752","12.2891688753989","0",""
"729290","Savio Fs","44.3133867037018","12.289221314948","0",""
"729300","Orfanelle Scuola","44.3101032584117","12.2896839470389","0",""
"729320","Savio Bar Cenni","44.3088897329734","12.2929604566833","0",""
"729321","Savio Bar Cenni","44.3089090717916","12.2930169627405","0",""
"729330","Savio Bar Cenni","44.3083646188664","12.2931681612128","0",""
"729331","Savio Bar Cenni","44.3083422338609","12.2931396905485","0",""
"729360","Dei Lombardi","44.3130545137381","12.2921242005793","0",""
"729370","Dei Lombardi","44.3130348677517","12.2922434702206","0",""
"729380","Lombardi P.L.","44.3147596694587","12.2960514989915","0",""
"729390","Lombardi P.L.","44.3141600253751","12.2948693535613","0",""
"729400","Caseificio","44.3214224684569","12.3110719236693","0",""
"729410","Caseificio","44.3222473524557","12.3131724900013","0",""
"729420","Dei Lombardi Bar","44.3270736410539","12.3239140486248","0",""
"729430","Dei Lombardi Bar","44.3260969718195","12.3219625989821","0",""
"729440","Chiesa","44.3287202502001","12.3309469688189","0",""
"729460","Cadamosto","44.3260131956598","12.3327375799582","0",""
"729470","Cadamosto","44.3263561531341","12.3322159514284","0",""
"729480","Vasco De Gama","44.3245011525529","12.3337110412784","0",""
"729490","Vasco De Gama","44.3236991823858","12.3339429985483","0",""
"729500","Da Empoli","44.3214273279058","12.3356936980822","0",""
"729510","Da Empoli","44.3212537576077","12.3355409442965","0",""
"729540","Bertinoro","44.3145006650114","12.3395113676743","0",""
"729550","Bertinoro","44.314318625385","12.3392101340736","0",""
"729560","Cotignola","44.311639010661","12.3415004507475","0",""
"729570","Cotignola","44.3111518542285","12.3421498323826","0",""
"729580","Lugo","44.3082061518893","12.3436875738438","0",""
"729590","Fusignano","44.3069213915529","12.3435368269568","0",""
"729600","Meldola","44.3050499394086","12.3436837200672","0",""
"729610","Meldola","44.3042158090122","12.3435159678352","0",""
"729620","Ravenna","44.3034367806816","12.3436798052889","0",""
"729630","Ravenna","44.3028852952574","12.3436076619205","0",""
"729640","Verghereto","44.3007880882823","12.3420366629649","0",""
"729650","Verghereto","44.3005814871473","12.3415168546831","0",""
"730010","Cervia Autostazione","44.2610832263548","12.3476573239307","0",""
"730011","Cervia Autostazione","44.260973586526","12.3477390647361","0",""
"730050","Cervia Fs","44.2587253841048","12.3475964409327","0",""
"730051","Cervia Fs","44.2587811294527","12.3475550461719","0",""
"730100","Sacchetti Est","44.2607585306263","12.3509909958168","0",""
"730150","Mille-Calatafimi","44.2605332548844","12.3531237879111","0",""
"730200","P.Zza A. Costa","44.2628789995826","12.3510714934257","0",""
"730240","Dei Mille-Quarto","44.2611739116752","12.3553473114513","0",""
"730280","Mille-Marconi","44.2615984027863","12.3571339039047","0",""
"730290","Mille-Miccoli","44.2616194210446","12.357337287872","0",""
"730310","Colombo-Palermo","44.2603655956529","12.358705992382","0",""
"730320","Deledda-Mameli","44.2601425526149","12.360297130616","0",""
"730350","Milazzo-Italia","44.2569620500209","12.3608512719842","0",""
"730360","Deledda-Milazzo","44.2563421862635","12.3622051578439","0",""
"730380","Deledda-Ferrara","44.2529457993437","12.364105366032","0",""
"730390","Deledda-Ferrara","44.2526999148483","12.3639789755264","0",""
"730400","Caduti Ospizio","44.2564819696181","12.3523475553059","0",""
"730410","Borgo A. Saffi","44.256370650389","12.352277238995","0",""
"730430","P.Le Gervasi","44.2570660251679","12.3519678960407","0",""
"730440","Caduti-Marmolada","44.2518894740364","12.3534903651169","0",""
"730450","Caduti-Marmolada","44.2516235125744","12.3534727297489","0",""
"731000","Oriani","44.2638414371484","12.3490766582775","0",""
"731010","Oriani","44.2640441887126","12.3494934071971","0",""
"731150","Cervia Ipssar","44.2618086803706","12.3449623464361","0",""
"731260","Di Vittorio,50","44.2659562577501","12.3461425469924","0",""
"731300","Milano","44.270182647026","12.3463824776656","0",""
"731400","Stazzone","44.266414164205","12.3400924704425","0",""
"731401","Stazzone","44.2664295642849","12.3400904540976","0",""
"731410","Stazzone","44.266356859879","12.3402216394423","0",""
"731411","Stazzone","44.2663396108352","12.3402222829221","0",""
"731440","Mughetti","44.2667436512063","12.3340116230456","0",""
"731441","Mughetti","44.2667707319211","12.3340181517998","0",""
"731450","Mughetti","44.2665804934031","12.3345072344587","0",""
"731451","Mughetti","44.2665598889104","12.3344991645517","0",""
"731500","Terme Di Cervia","44.2731486689661","12.3278973305746","0",""
"731501","Terme Di Cervia","44.2730541347646","12.3278757821482","0",""
"731700","Palazzone Scuola","44.261588691709","12.3372254269891","0",""
"731800","Martiri Fantini-Farmacia","44.2597228432737","12.3420655918377","0",""
"731810","Martiri Fantini,29d","44.2596778058617","12.3415552953092","0",""
"731820","Martiri Fantini","44.2586875363921","12.3391809368273","0",""
"731830","Martiri Fantini","44.2587266980588","12.3390967408119","0",""
"732000","De Amicis-Italia","44.2487149550578","12.3656717406169","0",""
"732010","De Amicis-Italia","44.2488229767839","12.3654940621043","0",""
"732040","Titano-De Amicis","44.2479229123716","12.3635242316998","0",""
"732050","Titano-De Amicis","44.2476698986793","12.3635020407553","0",""
"732100","Titano Banca","44.2429679449122","12.366620269412","0",""
"732110","Titano Banca","44.2429055498929","12.3665014839353","0",""
"732320","Italia-Valpadana","44.2375512086068","12.3724572566897","0",""
"732360","Italia-S.Marino","44.2405019827367","12.3705250889139","0",""
"732370","Italia-Sardegna","44.23961364938","12.3708759064679","0",""
"732460","Caduti-Nevoso","44.248281649582","12.3544549368065","0",""
"732470","Caduti-Nevoso","44.2480667543132","12.3544151555526","0",""
"732500","Gran Sasso","44.2448867036452","12.3553438507404","0",""
"732510","Gran Sasso","44.2446879864013","12.3553049899102","0",""
"732540","Caduti Lavoro","44.2420253748089","12.356087719268","0",""
"732550","Ficocle","44.2422311845072","12.3559466481202","0",""
"732600","Cosmonauti,17","44.2363292531436","12.3596554037073","0",""
"732610","Cosmonauti","44.2360445293776","12.3596204914023","0",""
"732700","Val Badia","44.2346447316291","12.367340481746","0",""
"732740","Piemonte","44.2366711614038","12.3660311575342","0",""
"732750","Piemonte","44.236383660123","12.3660723508949","0",""
"732780","Pinarella","44.2453129424307","12.3607331403064","0",""
"732790","Pinarella","44.2451431828983","12.3606078566181","0",""
"732830","Fienilone","44.2418842022044","12.3610063341736","0",""
"732860","Platone","44.2414197495049","12.3608782045034","0",""
"732880","Tritone","44.239799520142","12.3586709814213","0",""
"732920","De Amicis","44.2476350436806","12.3624784165622","0",""
"732930","De Amicis","44.2479308102101","12.3623543059081","0",""
"732960","Val Di Non","44.2368386008884","12.3708988932999","0",""
"733000","Pinarella-Lazio","44.2328529726663","12.3685679596523","0",""
"733010","Pinarella-Lazio","44.2323908214765","12.3687919922341","0",""
"733040","Valtellina","44.2284566048382","12.3719628610941","0",""
"733050","Valtellina","44.2287061628954","12.3716215443403","0",""
"733080","Tagliata","44.2237721617758","12.3759016646437","0",""
"733090","Tagliata Cap.","44.2236132195375","12.3758575167171","0",""
"733300","Italia-Lomellina","44.2261253411472","12.3807607520839","0",""
"733340","Italia-Salentino","44.2293434088606","12.3783841770511","0",""
"733380","Italia-Colonia","44.23207296182","12.3764209641227","0",""
"733420","Mezzanotte","44.2357309709649","12.373734745634","0",""
"733500","Mezzanotte","44.2354274929571","12.371892675999","0",""
"733540","Centro Sociale","44.2324247700937","12.3740967611089","0",""
"733580","Val D'Ossola","44.2301562997524","12.3757525261215","0",""
"733620","Abruzzi-Puglie","44.2270435559375","12.3779953257006","0",""
"733670","Del Sagittario","44.2238023345258","12.3776990850076","0",""
"733800","Lazio","44.2306357803352","12.3659934205787","0",""
"733840","Cosmonauti,47","44.226922586673","12.3686863816076","0",""
"733880","Cosmonauti,57","44.2240333477495","12.3715341204742","0",""
"733920","Cosmonauti","44.2213252353095","12.3740918901088","0",""
"733930","Cosmonauti,Fr.71","44.2209384516124","12.3741494415161","0",""
"733970","Sicilia,33","44.2210475511295","12.3764764450551","0",""
"734000","2 Giugno Iv","44.2674948608889","12.3548946909062","0",""
"734010","2 Giugno Iv","44.2680538768519","12.3546208206933","0",""
"734040","2 Giugno Iii","44.2709482620019","12.3536966790029","0",""
"734050","2 Giugno Iii","44.2707288979805","12.3535639081836","0",""
"734060","2 Giugno, 76","44.2746634455979","12.3522642405353","0",""
"734070","2 Giugno, Fr.70","44.2740654900456","12.3522703053874","0",""
"734100","Milano Marittima","44.2771926256671","12.3512768198668","0",""
"734110","Milano Marittima","44.2769573697412","12.351255914917","0",""
"734140","2 Giugno-Spalato","44.2789832797542","12.3504598360835","0",""
"734150","2 Giugno-Spalato","44.2792891496687","12.3505121678396","0",""
"734200","2 Giugno Iii Tr","44.2817557255049","12.3495807577661","0",""
"734210","2 Giugno Iii Tr","44.2817314807605","12.3494387849381","0",""
"734240","2 Giugno Ix Tr","44.28559770367","12.3484767956028","0",""
"734250","2 Giugno Ix Tr","44.2864247429434","12.3481503428534","0",""
"734300","Anello Del Pino","44.2893616448677","12.3479913890036","0",""
"734350","Anello Del Pino","44.2891658779551","12.3471154552909","0",""
"734380","2 Giugno-A. Pino","44.2926581990323","12.3468327213787","0",""
"734390","2 Giugno-A. Pino","44.2923794722455","12.3467592172924","0",""
"734500","Jelenia Gora","44.2795339881722","12.3456707288296","0",""
"734510","Jelenia Gora","44.2793346107355","12.3470454878378","0",""
"734680","P.Le Napoli","44.2810928888104","12.3475039694097","0",""
"734720","P.Le Genova","44.2840565784524","12.3468019501731","0",""
"734760","Xii Traversa","44.2884767751655","12.3457477584782","0",""
"734800","Xix-Xx Traversa","44.2932456762459","12.3446049527879","0",""
"734810","Xx-Xxi Traversa","44.2936798721548","12.3444115274843","0",""
"734840","Genio Militare","44.2957232285597","12.3440513134414","0",""
"734850","Genio Militare","44.2952059886808","12.3440400011888","0",""
"734880","Camping Romagna","44.2991547342735","12.3432755363189","0",""
"734890","Camping Romagna","44.2988552620549","12.3432214312271","0",""
"735000","Montaletto","44.2089698018854","12.3289736190413","0",""
"735010","Montaletto","44.2088103721209","12.3285623688416","0",""
"735050","Scuola","44.2094710947738","12.3305380014622","0",""
"735100","Bollana,23","44.2141309663886","12.3334648542713","0",""
"735110","Bollana,25","44.214048645365","12.3329443914724","0",""
"735150","Montaletto,Fr.1","44.2165324083099","12.3371277368187","0",""
"735200","Chiosco","44.2181559046885","12.337352272054","0",""
"735210","Chiosco","44.2178073475673","12.3375729102946","0",""
"735240","Beneficio Z.I.","44.2213087100872","12.331286937762","0",""
"735250","Beneficio Z.I.","44.2210160282226","12.3313462747877","0",""
"735300","Bollana,9","44.2209244192793","12.3419175262032","0",""
"735310","Bollana,Fr.9","44.2213283661028","12.3419082879758","0",""
"735400","Ca Nori","44.2284924822762","12.3531149817369","0",""
"735410","Ca Nori","44.2283838958703","12.3525546151027","0",""
"735510","Montaletto,10","44.2136782434259","12.3447171039468","0",""
"735550","Montaletto,10","44.2111889947569","12.3493263089537","0",""
"735600","Bigatta,4","44.2048328977447","12.3447614273233","0",""
"735610","Bigatta","44.2050080727374","12.3443622812693","0",""
"735630","Bigatta,8","44.2033099337228","12.3420617352512","0",""
"735670","Montaletto","44.2097827671744","12.3515647728456","0",""
"735710","Bv. Visdomina","44.2075435587953","12.3587784895712","0",""
"735750","Visdomina I","44.2037257834051","12.3557433435515","0",""
"735790","Visdomina Ii","44.2005853881796","12.351906261559","0",""
"735830","Visdomina Park.","44.1979844351107","12.3486228165412","0",""
"735870","Confine,149","44.1955550086754","12.3417137945607","0",""
"735910","Confine","44.1982606072379","12.3372426541496","0",""
"735950","Confine-Bollana","44.2071719128941","12.3228136605773","0",""
"736000","Cervarabeneficio","44.2345670441111","12.3174704312363","0",""
"736010","Cervarabeneficio","44.2349962753087","12.3172883893084","0",""
"736100","Cervara,43","44.232298580853","12.3147025523613","0",""
"736110","Cervara,Fr.43","44.2323832666464","12.3142665629622","0",""
"736200","B. Ii Tronco,25","44.2294762919986","12.3188513656732","0",""
"736210","B.  Ii Tronco,20","44.2288452765537","12.3189251920672","0",""
"736300","Sant'Andrea","44.2257316909341","12.3236884327705","0",""
"736310","Sant'Andrea","44.2256634277119","12.3235593892543","0",""
"736500","Madonna Neve","44.2477565372172","12.3304606550906","0",""
"736510","Madonna Neve","44.247672620589","12.3296343074955","0",""
"736850","Aeroporto","44.2231662227026","12.2966775269949","0",""
"736870","Confine-Cervese","44.2206789001133","12.3006782171312","0",""
"736910","Confine,Fr.3200","44.2148215885182","12.3103912826722","0",""
"737300","Martiri Focaccia","44.3044599681411","12.2979442120478","0",""
"737310","Martiri Focaccia","44.3043325883339","12.2977400942918","0",""
"737400","Bv. M. Focaccia","44.3020049852162","12.2996343666696","0",""
"737401","Bv. M. Focaccia","44.3020272209897","12.2996750347093","0",""
"737410","Bv. M. Focaccia","44.301757644468","12.2997408633005","0",""
"737411","Bv. M. Focaccia","44.3017171732711","12.2996982910341","0",""
"737420","M.Focaccia Cippo","44.3014618991436","12.3006990424345","0",""
"737500","Bv. Camane","44.2991857893812","12.3026277421209","0",""
"737501","Bv. Camane","44.2992057989218","12.3026704823919","0",""
"737510","Bv. Camane","44.2989661909838","12.3026254472141","0",""
"737511","Bv. Camane","44.2989337711517","12.3025901935256","0",""
"737700","Svincolo","44.2918849271613","12.3095458386071","0",""
"737710","Svincolo","44.2919319840032","12.3101898334317","0",""
"737720","Sottostrada","44.2921862379709","12.3096802097465","0",""
"737721","Sottostrada","44.2922199461355","12.3096579988945","0",""
"737760","Le Siepi","44.2965284251421","12.3264590216583","0",""
"737770","Le Siepi","44.2965404964721","12.3270577825262","0",""
"737800","Torres-Lunetta","44.3000287427593","12.2802068709785","0",""
"737810","Torres-Lunetta","44.3000521833251","12.2800193746427","0",""
"737840","Torres Ii","44.2966884918441","12.2744205557644","0",""
"737850","Torres Ii","44.2970712151349","12.2749169434403","0",""
"738000","Castiglione Cv","44.2590802328706","12.2627109379475","0",""
"738010","Castiglione Cv","44.2589526388519","12.2625134651156","0",""
"738100","Cimitero","44.257281760543","12.2733266042621","0",""
"738110","Cimitero","44.2570139821908","12.2733718599906","0",""
"738200","Ragazzena,114","44.2665852060457","12.2658435566362","0",""
"738210","Ragazzena,87","44.266541506098","12.2656122424865","0",""
"738300","Ragazzena,182","44.274209790976","12.2696193380606","0",""
"738310","Ragazzena,182","44.2739532089922","12.2693611305227","0",""
"738400","Ragazzena-Villa","44.2889527839507","12.2790273077487","0",""
"738410","Ragazzena,196","44.2886961875556","12.2786421677994","0",""
"738600","La Cella","44.2512686583907","12.2568475914132","0",""
"738610","La Cella","44.2512575948713","12.2564936073829","0",""
"738700","B.Tantlon Salara","44.2556399739927","12.2968661421788","0",""
"738710","B.Tantlon Salara","44.2551732428938","12.2975719525439","0",""
"738720","Crociarone","44.2550179602443","12.2968175687003","0",""
"738730","Crociarone","44.2551389054059","12.2964760951758","0",""
"739000","Pisignano Scuola","44.2384986602961","12.268672448153","0",""
"739010","Pisignano Scuola","44.2387066472855","12.2689544635546","0",""
"739040","Confine","44.239059140416","12.2701176290791","0",""
"739100","Duchino","44.2381215121779","12.2620947714953","0",""
"739110","Duchino","44.2383066685855","12.2623291287878","0",""
"739140","Zavattina","44.23767280484","12.2563617200182","0",""
"739150","Zavattina","44.2378252648046","12.2558401992201","0",""
"739300","Manfredi","44.2461843203675","12.2787405708288","0",""
"739310","Manfredi","44.2465687284488","12.2787133975601","0",""
"739340","Crociarone","44.2490013241312","12.2864179923287","0",""
"739350","Crociarone,8","44.2496284060084","12.2860177540992","0",""
"739400","Veneziana","44.2332977783423","12.2800114077727","0",""
"739410","Veneziana","44.2334960859788","12.2801276080969","0",""
"739450","Confine-Rovescio","44.2276010332213","12.2896501267629","0",""
"739700","Borgo Pasini","44.2472721271233","12.2470676265773","0",""
"739710","Borgo Pasini","44.2474158807721","12.2468181054186","0",""
"739740","Salara-Zavattina","44.2417878941561","12.2445320324077","0",""
"739750","Salara-Zavattina","44.2417442554763","12.244205758705","0",""
"739780","Cannuzzo Scuola","44.2368630474668","12.2416850666887","0",""
"739790","Cannuzzo Scuola","44.2367276408579","12.2412360176748","0",""
"739820","Salara Statale","44.2348611728622","12.2404948637622","0",""
"739830","Salara Statale","44.2346771532755","12.2402777346944","0",""
"739900","Cannuzzola","44.2304141680102","12.236393746698","0",""
"739910","Cannuzzola","44.2302692881133","12.2366136780498","0",""
"739950","Cannuzzola","44.2295600437068","12.2384507479748","0",""
"740000","Alfonsine Fs","44.5085630420026","12.0414457638713","0",""
"740010","Alfonsine Fs","44.5086244986412","12.0415043169938","0",""
"740040","Nagykata","44.5110586157736","12.0391110462999","0",""
"740050","Nagykata","44.5111459458538","12.0389080015395","0",""
"740100","Bar Dollaro","44.5028569326298","12.046925194171","0",""
"740110","Bar Dollaro","44.5028515391188","12.0471393138639","0",""
"740200","P.Zza Monti","44.4996251337037","12.0422999706743","0",""
"740210","P.Zza Monti","44.4998578342231","12.0428569002247","0",""
"740300","Roma","44.4944338025497","12.0475835846868","0",""
"740310","Roma","44.494603860496","12.0475842242948","0",""
"740400","Passetto","44.5134955474531","12.032391357783","0",""
"740410","Passetto","44.5138215999944","12.0322707141606","0",""
"740500","Villani","44.5062402681796","12.0229530468927","0",""
"740510","Villani","44.5067928008417","12.0233690973051","0",""
"740700","Alfonsine Stadio","44.5042084484292","12.0297902634482","0",""
"741000","Stroppata-Pini","44.4984271793783","12.0132460398241","0",""
"741010","Stroppata-Pini","44.498374337538","12.0129288583565","0",""
"742000","Tosca","44.5205104064382","12.0249611982116","0",""
"742010","Tosca","44.5206876902017","12.0249476798998","0",""
"742100","Reale Canalina","44.5319596384493","12.0133802854601","0",""
"742110","Reale Canalina","44.5320639247474","12.0133856679351","0",""
"742200","Taglio Corelli","44.5392441800774","12.0015367513156","0",""
"742210","Taglio Corelli","44.5394758025541","12.0010476924443","0",""
"743200","Raspona Tabacchi","44.5211217214238","12.0502057712102","0",""
"743210","Raspona Tabacchi","44.5213625360619","12.0504247130301","0",""
"743410","Raspona-Fornazzo","44.5365452656154","12.0581229708014","0",""
"743500","Madonna Bosco","44.5437180608526","12.0613588249882","0",""
"743510","Madonna Bosco","44.5440971104904","12.0617261423182","0",""
"745000","P.Zza Caduti","44.5648170830619","11.873062587021","0",""
"745010","P.Zza Caduti","44.5641569712733","11.8729645883","0",""
"745100","Lavezzola Scuole","44.5598808912627","11.8758112196935","0",""
"745110","Bastia-Ricci","44.559258556506","11.8760269071277","0",""
"745310","Frascata Bar","44.5486882557379","11.8796615250521","0",""
"746100","Battisti","44.5126421359546","11.8314419005334","0",""
"746110","Battisti","44.5130212316505","11.8318353280096","0",""
"746400","Selice Vecchia","44.5033730541086","11.8278316534917","0",""
"746410","Selice Vecchia","44.5034011938873","11.8279676147117","0",""
"746800","Selice Nuova,236","44.5330609494696","11.8372107328063","0",""
"746810","Selice Nuova,236","44.533015289892","11.8374693292436","0",""
"747000","S.Patrizio","44.4891853162138","11.8265187877288","0",""
"747001","S. Patrizio-Cimitero","44.4889783398227","11.8285859271072","0",""
"747010","S.Patrizio","44.4892707730496","11.8261379245475","0",""
"747011","S. Patrizio-Cimitero","44.4891325443146","11.8287652951845","0",""
"750000","Fusignano","44.4686944901416","11.9578501651376","0",""
"750200","Vittorio Veneto","44.4678636537546","11.9635371108059","0",""
"750300","San Remo","44.4652088570269","11.9558546166279","0",""
"750310","San Remo","44.4651889473023","11.9557359449502","0",""
"750400","Fusignano Molino","44.4693557912077","11.9535550321457","0",""
"750410","Fusignano Molino","44.4698138804561","11.9522731642555","0",""
"750500","Fusignano Ponte","44.466664384414","11.9649725096114","0",""
"750510","Fusignano Ponte","44.4667773507978","11.9649176636439","0",""
"750600","Gregory","44.4709345245253","11.9658619593263","0",""
"750610","Gregory","44.470785617155","11.9656262732965","0",""
"750700","S.Barbara Gi-Go","44.4632961803213","11.9481852802024","0",""
"750710","S.Barbara Gi-Go","44.4633675540585","11.9481503711947","0",""
"750800","Evergomma","44.4624845019509","11.9432567105316","0",""
"750810","Evergomma","44.462441393211","11.9430490663993","0",""
"750900","Fornace","44.4718988825429","11.9589462970766","0",""
"750910","Fornace","44.4717758464257","11.9585528394318","0",""
"751000","Sordina","44.4741755672809","11.9607185742834","0",""
"751010","Sordina","44.4742491219724","11.96109244907","0",""
"751100","Cinque Vie","44.4715017880601","11.9488983708805","0",""
"751110","Cinque Vie","44.4719038083603","11.9486696948509","0",""
"751300","Maiano","44.4799169112139","11.9451504135634","0",""
"751310","Maiano","44.4801710713477","11.944720591955","0",""
"751400","Marocche","44.4792509624528","11.9468848153937","0",""
"751410","Marocche","44.4791430401035","11.9475080869663","0",""
"751800","Maiano,Fr.80","44.4840788697267","11.9358883233178","0",""
"751810","Maiano,80","44.4843708485629","11.9355418680471","0",""
"751900","Canalvecchio","44.4873677557036","11.9291165434163","0",""
"751910","Canalvecchio","44.4876005027429","11.9290286623707","0",""
"752000","Scambio","44.4935849525752","12.0061041140939","0",""
"752010","Scambio","44.4936199418897","12.0058694603854","0",""
"752100","Stroppata","44.4886045065213","11.9972157596965","0",""
"752110","Stroppata","44.4886240370148","11.9970205720232","0",""
"752200","San Savino","44.4803808584511","11.9847880655065","0",""
"752210","San Savino","44.4806257270902","11.9846046003793","0",""
"752300","S.Savino","44.4823754686699","11.9770398731216","0",""
"752310","S.Savino","44.4821972926448","11.9763426594129","0",""
"752400","S.Savino Carossa","44.4797727723026","11.9704261445994","0",""
"752410","S.Savino Carossa","44.4798926506575","11.9699155909699","0",""
"753020","Basilica P.L.","44.4897264894323","12.0708309586677","0",""
"753080","Bv. Basilica","44.4861462859864","12.0690250845567","0",""
"753120","Glorie Fs","44.4800805758842","12.0695668487249","0",""
"753160","Bv. Aguta","44.4767495007474","12.0736859394529","0",""
"753200","Reale","44.4718938837624","12.0795376730712","0",""
"753240","Delle Scuole","44.4717170412132","12.0794785271341","0",""
"753250","Delle Scuole","44.4716068429461","12.0795448553565","0",""
"753300","Delle Scuole Bar","44.4696800235622","12.0784493005524","0",""
"753310","Delle Scuole Bar","44.4696922282024","12.0785638585469","0",""
"753320","Glorie","44.469272984938","12.0812273585179","0",""
"753400","Bv. Del Pino","44.4576686628386","12.0689703748204","0",""
"753410","Bv. Del Pino","44.4576946198762","12.0692120756464","0",""
"753440","Forno Bassini","44.4521670269609","12.0601680607792","0",""
"753450","Forno Bassini","44.452361386328","12.0604091119858","0",""
"753500","Villanova B.C.","44.4485373379499","12.0546791476197","0",""
"753501","Villanova B.C.","44.4485637271331","12.0547375855865","0",""
"753540","Bv. Dante","44.4470126606281","12.0521645084861","0",""
"753550","Bv. Dante","44.4469426700579","12.0523259056747","0",""
"753600","Bologna Nuova","44.4439596273454","12.0497957578182","0",""
"753610","Bologna Nuova","44.4441449572189","12.0501371678677","0",""
"753640","Tr Cortesi","44.4403169520413","12.0461223248504","0",""
"753650","Bv. Tr Cortesi","44.4403576398442","12.0464617196283","0",""
"753700","Entirate-Cogollo","44.4331111814673","12.0390790577978","0",""
"753710","Entirate-Cogollo","44.4333758234128","12.0394179876626","0",""
"753740","Entirate Ii","44.4290653509558","12.0372560711106","0",""
"753750","Entirate Ii","44.4291314905378","12.0374929147316","0",""
"753800","Ristorante","44.4238917750547","12.0354553388973","0",""
"753810","Ristorante","44.4240492416741","12.0357080451954","0",""
"753840","Entirate","44.4200207402584","12.0336922172677","0",""
"753850","Entirate","44.4201014436095","12.033991400039","0",""
"753900","Traversara","44.4101516065525","12.0257765717249","0",""
"753910","Traversara","44.4110742278211","12.0264270410653","0",""
"753940","Cocchi I","44.442065317638","12.0407952384776","0",""
"753950","Cocchi I","44.4418865957267","12.0409480625696","0",""
"753960","Cocchi-Aguta","44.445014653039","12.035821119944","0",""
"753970","Cocchi-Aguta","44.4449500884824","12.0358454199126","0",""
"753980","Cocchi Ii","44.4480128947464","12.030929470095","0",""
"753990","Cocchi Ii","44.4476816432066","12.0313345883291","0",""
"754000","Rossetta I","44.4898524607602","12.0380127391052","0",""
"754010","Rossetta I","44.4899037099026","12.037833596492","0",""
"754100","Rossetta Cam","44.4856267697543","12.0294885169088","0",""
"754110","Rossetta","44.4855948859811","12.0291643609463","0",""
"754200","Rossetta","44.4833198598932","12.0221974769871","0",""
"754210","Rossetta","44.4833379062286","12.0218600463766","0",""
"754300","Rossetta Iv","44.4811365811518","12.0102056844995","0",""
"754310","Rossetta Iv","44.48115634005","12.0097833772522","0",""
"754400","Rossettabellaria","44.4804636310998","12.0067115538867","0",""
"754410","Rossettabellaria","44.4805444044724","12.0063592991563","0",""
"754500","Rossetta-Biondi","44.4774473673538","11.9990960342334","0",""
"754510","Rossetta-Biondi","44.4774967076752","11.9986055701499","0",""
"754600","Samaritani","44.4701420996902","11.9833380977793","0",""
"754610","Samaritani","44.4701214320015","11.9827511785609","0",""
"754700","Masiera Bar","44.4613143479769","11.9698076905828","0",""
"754720","Masiera","44.4618333088851","11.969661727306","0",""
"754900","P.Zza V. Prati","44.4536748697004","12.0146405086383","0",""
"754910","P.Zza V. Prati","44.4538182468978","12.0149382286083","0",""
"754920","Chiara,Fr.5","44.4495724665483","12.0110371388164","0",""
"754930","Chiara,3","44.4493959967607","12.0111408223315","0",""
"754940","V. Prati Chiesa","44.4481695631023","12.0109326510564","0",""
"754950","V. Prati Chiesa","44.4483980993265","12.0112786988406","0",""
"755000","Marconi","44.4139571613526","11.9748531916438","0",""
"755010","Marconi","44.414123193389","11.9756661464071","0",""
"755100","Agrozoo","44.4176032332174","11.9814756920904","0",""
"755110","Agrozoo","44.4177569024889","11.9816643606058","0",""
"755200","Bagnacavallo Fs","44.4131675984992","11.9693932425333","0",""
"755210","Bagnacavallo Fs","44.4131973520839","11.9698226469683","0",""
"755400","Costituzione","44.4172114715036","11.9688082493528","0",""
"755410","Costituzione","44.4169897520948","11.9684630039163","0",""
"755600","Fornace","44.4127936489042","11.9860817863633","0",""
"755610","Fornace","44.4128445871823","11.9861873468227","0",""
"755800","Zona Industriale","44.4081534672701","11.9984718901672","0",""
"755810","Zona Industriale","44.4083096890246","11.9985256934699","0",""
"756100","Ponte Albergone","44.4024725229308","12.017680010982","0",""
"756110","Ponte Albergone","44.4027636634718","12.0175643904553","0",""
"756300","Boncellino","44.3798791949547","11.9867905949529","0",""
"756310","Boncellino","44.3799771474456","11.987106890123","0",""
"756340","Gabina,9","44.3826486999531","11.9800296520685","0",""
"756350","Gabina,10","44.3828044012846","11.9795831221447","0",""
"756370","Gabina-P.Nuovo","44.3832226069725","11.97597637518","0",""
"756600","Macallo-Rotella","44.4255350904723","11.9567476416003","0",""
"756610","Macallo-Rotella","44.4253847580076","11.9569209585715","0",""
"756800","Macallo-Confini","44.4278971695905","11.9484042847758","0",""
"756810","Macallo-Confini","44.4276667133529","11.9485784728441","0",""
"757000","Russi Ospedale","44.3726553951583","12.0314475466474","0",""
"757010","Russi Ospedale","44.3728330298095","12.0314436777578","0",""
"757040","Marconi,Fr.10","44.3702947505552","12.0351440580107","0",""
"757100","Russi Sc. Media","44.3727193604077","12.040611727946","0",""
"757120","Russi Elementare","44.3750181183506","12.0353779622028","0",""
"757140","Russi Consorzio","44.3710716053834","12.0364219246784","0",""
"757150","Russi Consorzio","44.3705889053495","12.0373834846045","0",""
"757200","Russi Fs","44.3777658378379","12.0317385771611","0",""
"757280","Fiumazzo,Fr.39","44.3850444011017","12.0317157154296","0",""
"757320","Carrarone","44.3867986315345","12.0247409753674","0",""
"757380","Borgo Parigi","44.3792951018938","12.0211066891467","0",""
"757400","Russi Fornace","44.3810565550969","12.0349463946463","0",""
"757410","Russi Fornace","44.3807929803853","12.0347356832769","0",""
"757420","Azzali,Fr.3","44.3737843773371","12.0265461480858","0",""
"757460","Gucci-Nenni","44.3696376270722","12.0248785932471","0",""
"757500","Distributore","44.3686113050757","12.02593564361","0",""
"757510","Distributore","44.3685569721484","12.0260060000261","0",""
"757540","S.Giovanni, 40","44.3676072033168","12.0281752377171","0",""
"757600","Borgo Violetta","44.3645453137032","12.0408929966764","0",""
"757700","Pezzolo","44.3577132764888","12.0330523531098","0",""
"757800","B. Testi Rasponi","44.3647745540322","12.0193967129613","0",""
"757810","B. Testi Rasponi","44.3646691584773","12.0190248466935","0",""
"758000","B. Zampartino","44.387026819413","12.046039347659","0",""
"758010","B. Zampartino","44.3867688780823","12.0451797985509","0",""
"758500","Godo","44.3923841297698","12.0742574539821","0",""
"758510","Godo","44.3923178288157","12.0739988812499","0",""
"758600","Godo Frigo","44.3955916649272","12.0835158976505","0",""
"758610","Godo Frigo","44.395654834149","12.0834726597224","0",""
"758900","N. Franguelline","44.3840263613144","12.0764066969358","0",""
"758910","N. Franguelline","44.384285940422","12.0766375861398","0",""
"758940","Godo Az. Cavalli","44.378553091487","12.0915833193887","0",""
"758950","Godo Az. Cavalli","44.3783229677231","12.0918176248859","0",""
"759000","Russi-Cupa","44.3646151744763","12.0525946454787","0",""
"759010","Russi-Cupa","44.3648580199313","12.05159326055","0",""
"759100","Distributore","44.3589388752577","12.0699501246817","0",""
"759110","Distributore","44.3587979347138","12.0700356158362","0",""
"759130","Artigianato","44.3590322798815","12.0738379066883","0",""
"759150","Molinaccio,94","44.3575313937426","12.0740427531121","0",""
"759200","Fontana","44.3569206733345","12.0780308977214","0",""
"759210","Fontana","44.3565820769663","12.0775237903867","0",""
"759300","S.Pancrazio","44.3576605400485","12.0809055278332","0",""
"759310","S.Pancrazio","44.3577493116409","12.0809956864868","0",""
"759340","Scuola","44.360657991002","12.0799208246063","0",""
"759400","Chiesa","44.3607254573451","12.0764351050435","0",""
"759410","Chiesa","44.3609404942551","12.0762785077449","0",""
"759450","Molinaccio","44.3605156168485","12.0669721875091","0",""
"759550","Torre,19","44.3533489359622","12.0596412903497","0",""
"759560","Torre,Fr.19","44.3534428317611","12.0596487078536","0",""
"759600","Chiesuola","44.3462577101513","12.0558268853257","0",""
"759640","Vico,12","44.340155973995","12.0435149238885","0",""
"759700","Vico-Sp.52","44.336276089657","12.031457192515","0",""
"759740","Case Vento,23","44.3445172741858","12.0312013701176","0",""
"759800","Bv. Madrara","44.355162358782","12.0102322897927","0",""
"759810","Bv. Madrara","44.3552001103157","12.0100836912489","0",""
"759900","Corleto,333","44.3333618337218","12.0249765226619","0",""
"759910","Corleto-Prada","44.3327067827266","12.0222647541441","0",""
"759940","Prada","44.3438118347296","12.0166363549639","0",""
"759950","Prada","44.3426580509596","12.0170359000577","0",""
"760000","Foro Boario","44.4222558772415","11.9111029632117","0",""
"760001","Foro Boario","44.4223100781759","11.9111333968108","0",""
"760050","P.Zza Garibaldi","44.4217103395034","11.9123019032346","0",""
"760051","P.Zza Garibaldi","44.4216498033294","11.9122748951488","0",""
"760060","Mentana","44.4222328233035","11.9120609349369","0",""
"760080","Mentana-Europa","44.4233615474446","11.9129316595066","0",""
"760090","Mentana","44.4237129524098","11.9130961027125","0",""
"760140","Autostazione","44.4136109715931","11.908937895384","0",""
"760300","Lugo Stazione Fs","44.4147680779582","11.9153834939966","0",""
"760310","Lugo Stazione Fs","44.4146163584546","11.9149087062274","0",""
"760400","Lugo Ospedale","44.416786923787","11.9180776882113","0",""
"760410","Lugo Ospedale","44.4168510270054","11.9182405140139","0",""
"760411","Lugo Ospedale","44.4168150540958","11.9179780239678","0",""
"760500","Succursale Itis","44.4218150445724","11.904165769531","0",""
"760501","Succursale Itis","44.4217840093057","11.9042681235846","0",""
"760510","Succursale Itis","44.4216360499894","11.9039119455637","0",""
"760600","Molino Figna","44.4241119178858","11.9026665992658","0",""
"760610","Molino Figna","44.4237903138747","11.9037372836974","0",""
"760800","Acquacalda","44.4197711956658","11.9170620782106","0",""
"760801","Acquacalda","44.4197975154594","11.9170815480109","0",""
"760810","Acquacalda","44.4195366815525","11.9173239692854","0",""
"760811","Acquacalda","44.4194711428817","11.9172825506121","0",""
"760900","Acquedotto","44.4175596247094","11.9194758721738","0",""
"760910","Pronto Soccorso","44.4170659778614","11.9202960040901","0",""
"761100","Lugo Cimitero","44.4273295019428","11.8948320782647","0",""
"761110","Lugo Cimitero","44.4270026302939","11.8951776072403","0",""
"761120","Lugo Cimitero","44.4261687421143","11.895049070707","0",""
"761200","Zona Artigianale","44.4300279316633","11.8941437212101","0",""
"761210","Zona Artigianale","44.4297653849278","11.8941307541526","0",""
"761300","Villa,Fr.4","44.4177233316546","11.9005891815477","0",""
"761310","Villa,5","44.4175885895404","11.900754599667","0",""
"761340","Villa,24","44.4200044080831","11.8956686738435","0",""
"761350","Villa,37","44.4197411113725","11.8960400465736","0",""
"761380","Villa,Fr.59","44.4217039158848","11.8905620821502","0",""
"761390","Zambra-Villa,24","44.4215047000568","11.8908210803081","0",""
"761400","Zambra-Villa,67","44.4228817460248","11.8874922085578","0",""
"761410","Zambra-Villa,67","44.42276886633","11.8875770945298","0",""
"761600","Fornace","44.4281098189453","11.9166350604771","0",""
"761610","Fornace","44.4272889811283","11.9158731481094","0",""
"761620","Lugo Piscina","44.4193615405104","11.931826091162","0",""
"761640","Europa","44.4187264960879","11.9258132787029","0",""
"761660","Di Gi","44.4190411615285","11.9195854268084","0",""
"761700","Lugo Stadio","44.4178477403157","11.9317566091364","0",""
"761800","Ala Zignago","44.4160820861265","11.9325481707181","0",""
"761810","Ala Zignago","44.4158611643166","11.9321735542017","0",""
"762100","S.Antonio","44.453585656241","11.936155117251","0",""
"762110","S.Antonio","44.4535597436499","11.9359788870474","0",""
"762200","Bv. Bizzuno","44.4492842219338","11.9329958949705","0",""
"762210","Bv. Bizzuno","44.4492913392308","11.932874283588","0",""
"762300","Consorzio","44.4439174754344","11.928845516597","0",""
"762310","Consorzio","44.4443049280334","11.9290493480003","0",""
"762350","Bizzuno Centro","44.4500485106793","11.9263844338075","0",""
"762400","Cantina","44.4324357101037","11.9200867659502","0",""
"762410","Cantina","44.4325067694295","11.9199867662602","0",""
"762700","S.Potito Chiesa","44.431715896956","11.9390007691232","0",""
"762710","S.Potito Chiesa","44.431581516151","11.9389123002067","0",""
"762800","Macallo-Di Giu","44.4342559206306","11.9323577313219","0",""
"762810","Macallo-Di Giu","44.4340796996486","11.9324913926113","0",""
"763500","Cevico","44.4374800174141","11.8910991364999","0",""
"763510","Cevico","44.4372351289066","11.890981164493","0",""
"763540","Ascensione","44.445318109662","11.8881658545772","0",""
"763550","Ascensione","44.4451034411959","11.888039653356","0",""
"763600","La Pioppa-5 Vie","44.4522539124899","11.8853809320654","0",""
"763610","La Pioppa-5 Vie","44.4520563988872","11.8852882478189","0",""
"763640","Ca Di Lugo","44.4605990519023","11.8822550047546","0",""
"763650","Ca Di Lugo","44.4610782759777","11.8820297098706","0",""
"763700","Molino Vecchio","44.4672035598664","11.8866622650124","0",""
"763710","Molino Vecchio","44.4669871089621","11.8862505554273","0",""
"763740","P.Zza Viii Marzo","44.4759614786226","11.8931937614963","0",""
"763750","P.Zza Viii Marzo","44.4756863956313","11.8928230722681","0",""
"763800","Cimitero","44.4794849434829","11.8982367751393","0",""
"763810","Cimitero","44.4794085770358","11.8980179720666","0",""
"763840","Fiumazzo,274","44.4864327327694","11.9036340060354","0",""
"763850","Fiumazzo,Fr.274","44.4863955179093","11.9034672903498","0",""
"763900","Santa Dorotea","44.489881657906","11.9007642650437","0",""
"763910","Santa Dorotea","44.4896332043461","11.9004802890168","0",""
"763940","Molino","44.4951640991268","11.9050804819415","0",""
"763950","Molino","44.495069449828","11.9047068901059","0",""
"764000","Cantine","44.4991097248196","11.9092798505094","0",""
"764010","Cantine","44.4989631487523","11.9088877431428","0",""
"764100","Belricetto","44.5039771372412","11.9107600281501","0",""
"764110","Belricetto","44.5037378953691","11.9104688489253","0",""
"764200","Bv. S.Bernardino","44.5079550766879","11.9106069418212","0",""
"764210","Bv. S.Bernardino","44.5076633239548","11.9104555114999","0",""
"764300","Bv. S.Bernardino","44.510827524442","11.9092266873517","0",""
"764310","Bv. S.Bernardino","44.5105964282726","11.9093221196385","0",""
"764400","Fiumazzo","44.5117601770981","11.9068952755086","0",""
"764410","Fiumazzo","44.5115517220863","11.9074364001932","0",""
"764500","Stradone,Fr.98","44.5127598526149","11.9014318306541","0",""
"764510","Stradone,98","44.5125197645066","11.9018298221081","0",""
"764600","S.Bernardino","44.5150477908214","11.8884627722759","0",""
"764601","S.Bernardino","44.5151791134124","11.88842087658","0",""
"764610","S.Bernardino","44.5148214744197","11.8890102184253","0",""
"764611","S.Bernardino","44.5147182004379","11.8891004789555","0",""
"764650","Della Pace","44.5146212459215","11.8888115899952","0",""
"764651","Della Pace","44.5145207905044","11.8888502602692","0",""
"764940","Maiano-Mazzola","44.4962387638683","11.9127102084723","0",""
"764950","Maiano-Mazzola","44.4963704589303","11.912824235375","0",""
"765200","Passogatto","44.5365855986433","11.9003139557903","0",""
"765210","Passogatto","44.5363208147667","11.9002509971872","0",""
"765240","Zanibona","44.5416242549764","11.8948685652171","0",""
"765250","Zanibona","44.5415037015871","11.8950093848891","0",""
"765300","Frascata Bar","44.5485560857688","11.8799429655872","0",""
"765400","Ciribella","44.5253910097241","11.907843883703","0",""
"765410","Ciribella","44.5255274886999","11.9072205388694","0",""
"765500","Rotaccio","44.5298139505273","11.9151698281226","0",""
"765510","Rotaccio","44.5288675589694","11.9139209005066","0",""
"765600","Marmana","44.5349595126765","11.9205930477552","0",""
"765610","Marmana","44.5347839147761","11.9202625733724","0",""
"765640","Fiumazzo,Fr.569","44.537142809769","11.9244712438195","0",""
"765650","Fiumazzo,569","44.5371187646422","11.9240043321582","0",""
"765700","Voltana P.L.","44.540598320567","11.9337161265801","0",""
"765710","Voltana P.L.","44.5404431105103","11.9334502840611","0",""
"765740","Voltana","44.5427761705697","11.9357173166335","0",""
"765750","Voltana","44.5417877754718","11.9349490440156","0",""
"765800","Margotta","44.545303635517","11.9371211593117","0",""
"765810","Margotta","44.5452047273403","11.936836718546","0",""
"765900","Margotta-Reale","44.5523631582326","11.9436619640661","0",""
"765910","Margotta-Reale","44.5523063115205","11.9434576567269","0",""
"766400","Bastia,287","44.5422287421339","11.8816967857195","0",""
"766410","Bastia,286","44.542061937307","11.881511549209","0",""
"766500","Giovecca","44.535549908178","11.8816306060328","0",""
"766510","Giovecca","44.5352584664386","11.8811933219837","0",""
"766550","Gardizza-Predola","44.5328365522336","11.8727017588288","0",""
"766600","Bastia Nuova","44.5084116468285","11.8773960329354","0",""
"766610","Bastia Nuova","44.5082771327783","11.8773038625326","0",""
"766700","S.M. In Fabriago","44.4876256874449","11.8839469209149","0",""
"766710","S.M. In Fabriago","44.487676946119","11.8837847472282","0",""
"767100","Villa,Fr.89","44.4185166558876","11.8778054108741","0",""
"767110","Villa,85","44.4185613145518","11.8780501073042","0",""
"767160","V.S.Martino Cfp","44.4151205949627","11.8705270089741","0",""
"767170","V.S.Martino Cfp","44.4150182352442","11.8706037803936","0",""
"767300","V.S.Martino,78","44.4160751875433","11.8625502895307","0",""
"767310","V.S.Martino,78","44.4160892142771","11.8626447692183","0",""
"767320","Bagnara,116","44.413863362108","11.8611418055311","0",""
"767330","Bagnara,145","44.4137953475397","11.861205970424","0",""
"767360","Bagnara-Lunga","44.4138261710057","11.8551748325357","0",""
"767400","Bagnara,126","44.4097601289269","11.851736559727","0",""
"767410","Bagnara,128","44.4091785576634","11.8513402949308","0",""
"767440","Bagnara,21a","44.4034233422177","11.8468259728204","0",""
"767450","Bagnara,21b","44.4036255134686","11.847058061346","0",""
"767800","Felisio-Buozzi","44.4086086201445","11.9015310996822","0",""
"767810","Felisio-Buozzi","44.4087211649679","11.9017419204047","0",""
"768000","Sant'Agata","44.4415350983702","11.8585646012067","0",""
"768010","Sant'Agata","44.4410633589425","11.8594991089583","0",""
"768400","S.Vitale-Lunga","44.4356217730218","11.8734945852864","0",""
"768410","S.Vitale-Lunga","44.4358248937869","11.8732934579097","0",""
"769000","Massalombarda Fs","44.448729531734","11.8277932409197","0",""
"769001","Massalombarda Fs","44.4487359772989","11.8278831837044","0",""
"769100","Massalombarda Pl","44.4434485810456","11.8378051162372","0",""
"769110","Massalombarda Pl","44.443366997574","11.8384068687026","0",""
"769400","Fruges-Modena","44.4505436978031","11.8139831042785","0",""
"769410","Fruges-Morini","44.4502076854502","11.8149045283532","0",""
"769600","Fruges Bar","44.4529580675061","11.8055776453836","0",""
"769610","Fruges Bar","44.4530351675016","11.8056428003243","0",""
"770000","Cotignola Centro","44.3841431884299","11.9424198055019","0",""
"770100","Kennedy","44.3837888948797","11.931595175357","0",""
"770110","Kennedy","44.383218648896","11.9333267026648","0",""
"770200","Borgo","44.3831504075272","11.9428313520793","0",""
"770300","Salara","44.3837891734109","11.9496825426593","0",""
"770310","Salara","44.3836353219954","11.9498530723156","0",""
"770360","Gabina,1","44.3830345501126","11.9751784787853","0",""
"770380","Gabina,5","44.3832483105382","11.9707051817016","0",""
"770390","Gabina,4c","44.383156088041","11.9716194332673","0",""
"770440","Gabina,11","44.3857185431583","11.9620498884009","0",""
"770450","Gabina,12","44.3861088671649","11.9609547780113","0",""
"770480","Gabina,Fr.16","44.3871674837246","11.9554013929246","0",""
"770490","Gabina,16","44.3872590961486","11.9550620153451","0",""
"770870","Madrara,8","44.371894530737","11.9749436894458","0",""
"770900","Toletta-Madrara","44.3722971793108","11.9774884821457","0",""
"770910","Toletta-Madrara","44.3724104936094","11.9777000689147","0",""
"771200","Ponte Pietra,6","44.3825939138326","11.9230890844106","0",""
"771210","Ponte Pietra,6","44.3826699060287","11.9228948152876","0",""
"771240","Ponte Pietra,10","44.3805047148014","11.9184871061836","0",""
"771250","Ponte Pietra,10","44.3805394837263","11.9181955737143","0",""
"771280","Chiusaccia","44.3747766012754","11.9083256996542","0",""
"771290","Chiusaccia","44.3747679223245","11.9080231515514","0",""
"771320","S.Giovanni","44.3808928352036","11.9018665713356","0",""
"771330","S.Giovanni","44.3810881037693","11.9016426227818","0",""
"771360","S.Giovanni","44.386083434078","11.8885977284454","0",""
"771370","S.Giovanni","44.3862928979006","11.8883344534904","0",""
"771500","Barbiano Piazza","44.3861050874355","11.8857235675893","0",""
"771510","Barbiano","44.3862253183843","11.8854903214349","0",""
"771600","Barbiano Sp.48","44.3840011421518","11.8849026752213","0",""
"771610","Barbiano Sp.48","44.3835717050012","11.8853067179511","0",""
"771700","Felisio Clinica","44.3976217293817","11.8930514467342","0",""
"771710","Felisio Clinica","44.3978794554309","11.8932990187127","0",""
"771711","Felisio Clinica","44.3978683604461","11.8933186037825","0",""
"772010","Bagnara Rocca","44.3884914729997","11.8250585661453","0",""
"772011","Bagnara Rocca","44.3884755691114","11.8250931744786","0",""
"772300","Madonna,43","44.3947937500116","11.8359825458052","0",""
"772310","Madonna,Fr.43","44.3949707238592","11.8361970202418","0",""
"773000","Solarolo","44.3597500947636","11.843426397124","0",""
"773010","Solarolo","44.3595820751388","11.8433097557756","0",""
"773100","Solarolo Scuola","44.3593973285073","11.8474618707033","0",""
"773110","Solarolo Scuola","44.3595737073385","11.8477181028269","0",""
"773140","Solarolo Fs","44.3566495742951","11.8487887045438","0",""
"773150","Solarolo Fs","44.3564783136455","11.8487117982662","0",""
"773200","Solarolo-Sp.10","44.3632582446811","11.8364391528895","0",""
"773210","Solarolo-Sp.10","44.3631662033709","11.8365564363719","0",""
"773500","Madonna Salute","44.3677920260961","11.8565076471408","0",""
"773510","Madonna Salute","44.36814627138","11.857353201542","0",""
"773900","Castelnuovo","44.3605412070318","11.8013060213867","0",""
"773910","Castelnuovo","44.3605261938727","11.8014350462369","0",""
"774000","Umberto I,46","44.3207649258495","11.7982689407271","0",""
"774001","Umberto I,46","44.3207780663054","11.798229962715","0",""
"774010","Umberto I,Fr.46","44.3205692253532","11.7982992345036","0",""
"774011","Umberto I,Fr.46","44.3205397187773","11.7983430913957","0",""
"774020","P.Zza Bernardi","44.3195712598989","11.7995756108309","0",""
"774030","Emilia,70","44.3198624489906","11.7992952785976","0",""
"774050","C.Bolognese Fs","44.3254338794064","11.8039736953693","0",""
"774051","C.Bolognese Fs","44.3254657789847","11.8039978482682","0",""
"774200","Cimitero","44.3205371857762","11.7908259562501","0",""
"774210","Cimitero","44.3209368709959","11.7911743907718","0",""
"774240","Zona Industriale","44.3263137759417","11.7828102223553","0",""
"774250","Zona Industriale","44.3267028350475","11.7822217980445","0",""
"774280","Emilia Pon.Cedir","44.3311869383693","11.7705216194919","0",""
"774290","Emilia Pon.Cedir","44.331391734952","11.7705844991718","0",""
"774500","Ponte Castello","44.3109930312682","11.8230518638758","0",""
"774510","Ponte Castello","44.3113705556665","11.8225927535399","0",""
"774600","Sp.306-Alberazzo","44.3096832133117","11.78177719262","0",""
"774630","Sp.306-Alberazzo","44.3077997194981","11.7808008909258","0",""
"774700","Sp.306-Camerini","44.2974329108338","11.7711033560911","0",""
"774710","Sp.306-Camerini","44.2974390214094","11.771456133684","0",""
"774800","Sp.Riolo-Casacce","44.2888472925203","11.7653784474001","0",""
"774810","Sp.Riolo-Casacce","44.2893725594789","11.7658974503805","0",""
"775000","Autostazione","44.2775182742763","11.7283953446647","0",""
"775001","Autostazione","44.2774742066024","11.7284149685285","0",""
"775040","Gramsci Scuole","44.2777495219758","11.7266975463064","0",""
"775050","Gramsci Scuole","44.277705661557","11.7268668209829","0",""
"775060","Battisti,Fr.4","44.2757582022305","11.7229286151793","0",""
"775070","Battisti,42","44.2776398654109","11.7233909695551","0",""
"775080","Berlinguer,136","44.2777467134379","11.7329248696196","0",""
"775100","Ex Autostazione","44.2763510886968","11.7269901717538","0",""
"775110","Manzoni-Leopardi","44.2756444358912","11.7327778034215","0",""
"775120","Gobetti,Fr.37","44.2773652808508","11.718545116901","0",""
"775130","Allende,30","44.2781613190677","11.7164635405838","0",""
"775140","Togliatti Park.","44.2773707649622","11.7164941253967","0",""
"775150","Togliatti,Fr.58","44.2760798238665","11.7171116368878","0",""
"775160","Scalini,7","44.2762120011982","11.719852671032","0",""
"775170","Acqualand","44.2743727934058","11.7180115697832","0",""
"775180","Rio Vecchio,34","44.2743043371444","11.7206829346013","0",""
"775190","Terme","44.2708316906482","11.7176180812535","0",""
"775200","Stab. Terme","44.2718511500032","11.7198348000238","0",""
"775210","Stab. Terme","44.2717942642195","11.720408546266","0",""
"775220","Limisano,Fr.7","44.271657637119","11.7220085349283","0",""
"775230","Limisano,7","44.2715969752149","11.7223308165419","0",""
"775240","Sp.Riolo-Abbazia","44.2765666604327","11.7367159710435","0",""
"775250","Sp.Riolo-Abbazia","44.2764407334823","11.7376123399327","0",""
"775260","Marabini","44.2778528130837","11.7409128627247","0",""
"775280","Mazzolano-Lotta","44.2857209171191","11.7250922562453","0",""
"775300","Cimitero","44.2768282952129","11.7461002025786","0",""
"775310","Cimitero","44.2766777557852","11.7463157337208","0",""
"775340","Sp.306-Cuffiano","44.2771863137789","11.7525867548737","0",""
"775350","Sp.306-Cuffiano","44.277079730892","11.7540655857845","0",""
"775360","Cuffiano,6","44.2768558872406","11.7529081124766","0",""
"775370","Campana,24","44.2765557994014","11.7555439140626","0",""
"775400","Limisano,6","44.2696124056754","11.7273900351183","0",""
"775410","Limisano,Fr.6","44.2693175760792","11.7286431623159","0",""
"775420","Laderchio","44.2650359800672","11.7304622518655","0",""
"775430","Laderchio","44.2652268290513","11.7313423563972","0",""
"775460","Limisano Chiesa","44.2631783869536","11.7388472736456","0",""
"775470","Limisano Chiesa","44.2632231118563","11.7391911434514","0",""
"775500","Firenze,62","44.2717450474706","11.7098110656131","0",""
"775510","Firenze,31","44.2715344910847","11.7107194385306","0",""
"775530","Rio Ferrato, 9","44.2595237526253","11.7069624914824","0",""
"775540","Isola","44.2713238958067","11.6948963623549","0",""
"775550","Isola","44.2712769638089","11.6963140781627","0",""
"775560","Isola Parcheggio","44.2676678832777","11.6953907193987","0",""
"775580","Firenze-Macerato","44.2674103584723","11.6831704013914","0",""
"775590","Firenze-Macerato","44.2675440307308","11.6835126211566","0",""
"775620","Costa Vecchia","44.2630549545302","11.6733833733635","0",""
"775630","Firenze,Fr.138","44.2630362217926","11.673776746258","0",""
"775640","Borgo Rivola","44.2609897265983","11.6714563961103","0",""
"775650","Borgo Rivola","44.2607625526941","11.6713706477865","0",""
"775670","Buldrini","44.2610730616033","11.670323432603","0",""
"775720","B.Rivola Chiesa","44.264326564145","11.6716246996691","0",""
"775730","B.Rivola Chiesa","44.2642852362324","11.6716979959826","0",""
"775740","Campidello","44.2675316099222","11.6703917916735","0",""
"775770","Macerato","44.2685416669233","11.6733944327931","0",""
"775780","Rinaldi","44.2727758886779","11.6732707595105","0",""
"775800","Macerato","44.2703308649824","11.6797152952109","0",""
"775810","Macerato","44.270158665271","11.6796874181763","0",""
"775840","Marotta-Brete","44.2746260126235","11.6869577326252","0",""
"775860","Brete","44.2743151791997","11.6955594379671","0",""
"775880","Sp.65-Fontana","44.2847395790378","11.6804559246482","0",""
"775900","Toranello","44.2929447321589","11.6800723092294","0",""
"775930","Toranello","44.2964731878885","11.676723085625","0",""
"775950","Cantina Vignoli","44.2987707607561","11.6800968203257","0",""
"775960","Sp.65,21","44.3032363148823","11.6822357639901","0",""
"775980","Monumento","44.3101135364382","11.6883969042385","0",""
"777000","Brisighella Fs","44.2215057817957","11.769298277346","0",""
"777020","Brisghella Fs","44.2208800840989","11.769854813299","0",""
"777021","Brisghella Fs","44.2208700744769","11.7698519596805","0",""
"777100","De Gasperi-Poste","44.2225568505011","11.7750263560125","0",""
"777110","Maglioni,Fr.9","44.2228888663258","11.7758857722593","0",""
"777140","Faentina-Bacello","44.2266466514041","11.7832065293006","0",""
"777150","Faentina,26","44.2266799944947","11.7837589907114","0",""
"777180","Pontelungo","44.2288228235314","11.7890636512234","0",""
"777190","Pontelungo","44.2288781049561","11.7893066606883","0",""
"777220","Cicognani-Tho","44.2206396479359","11.7648578157626","0",""
"777230","Cicognani-Tho","44.2205560957517","11.76501338382","0",""
"777280","Strada-Valloni","44.216288987246","11.7542873415757","0",""
"777290","Strada-Valloni","44.2162299619779","11.7544948904392","0",""
"777400","Faentina-Fornace","44.2321130531914","11.7927952588463","0",""
"777410","Faentina-Fornace","44.2318978468582","11.7927600309502","0",""
"777440","Archetta","44.237109173605","11.7977401766122","0",""
"777450","Faentina,100","44.2368516644401","11.797667858151","0",""
"777480","Faentina,95","44.2421506120783","11.8044964991237","0",""
"777490","Faentina,Fr.95","44.242444671123","11.8049863747769","0",""
"777520","Faentina-Pideura","44.2487386473514","11.812920889128","0",""
"777530","Faentina-Pideura","44.2485290406173","11.8129509709445","0",""
"777600","Pontenono,Fr.1","44.2125697508459","11.7502235092212","0",""
"777610","Pontenono,3","44.2124133700932","11.750436528483","0",""
"777640","Rontana","44.2267612876161","11.7523034232526","0",""
"777650","Rontana","44.2273341931853","11.7522664989573","0",""
"777660","Calbane,5","44.2318749515153","11.7426450490705","0",""
"777670","Calbane,Fr.5","44.2321200119244","11.7426034006247","0",""
"777700","Calbane-Lame","44.2439392639038","11.7341186829186","0",""
"777710","Calbane-Lame","44.2440942971909","11.7340144662947","0",""
"777720","Calbane,Fr.38","44.2482544513772","11.7348227208773","0",""
"777730","Calbane,38","44.248371520199","11.7353480663427","0",""
"777760","Calbane Chiesa","44.2537291560635","11.739968529633","0",""
"777770","Calbane Chiesa","44.2534373487893","11.7399637298894","0",""
"777830","Banicelli","44.2627220605705","11.7468145470957","0",""
"777831","Banicelli","44.2626778644203","11.7468528944814","0",""
"777850","Villa Vezzano","44.2655740885469","11.7491758916463","0",""
"777851","Villa Vezzano","44.2655288413569","11.7492497638612","0",""
"777900","Lame","44.2435848422989","11.7320386709471","0",""
"777911","Lame","44.243447015125","11.7324331206747","0",""
"777920","Lame-Castelnuovo","44.2398045705932","11.7268243241911","0",""
"777931","Lame-Castelnuovo","44.2394444407331","11.7272554019278","0",""
"777940","Lame,Fr.10/12","44.2367515811944","11.717003004397","0",""
"777951","Lame,10/12","44.2366092205769","11.717352739147","0",""
"777960","Torre Mironi","44.2326509099117","11.7114413800119","0",""
"777971","Torre Mironi","44.2327085971481","11.7117973710837","0",""
"778000","Fognano Fs","44.2031117902038","11.727766359251","0",""
"778001","Fognano Fs","44.2030914019828","11.7277153569188","0",""
"778040","Fognano Scuole","44.2043999935219","11.7302188091867","0",""
"778041","Fognano Scuole","44.2044297277653","11.7301801339503","0",""
"778100","Fognano Chiesa","44.2056289713005","11.73484136172","0",""
"778110","Fognano Chiesa","44.2054445602732","11.7350230620445","0",""
"778140","Torre","44.2053165091164","11.7387117624084","0",""
"778150","Marsala","44.2051842579596","11.738370210836","0",""
"778180","Pontenono,Fr.27","44.2086285801046","11.7469959887215","0",""
"778190","Pontenono,33","44.2085309629707","11.7471616708383","0",""
"778220","Brisighellese,22","44.2004805067234","11.7269640638555","0",""
"778230","Brisghellese,9","44.2006889831179","11.7278847575636","0",""
"778300","Castellina","44.1958726583024","11.7160196570751","0",""
"778310","Castellina","44.1959211721656","11.7164023034552","0",""
"778400","Casale","44.1893302393662","11.7073407389211","0",""
"778410","Casale","44.1891088693335","11.7072605295917","0",""
"778500","Strada Casale","44.1824274062008","11.6992553522114","0",""
"778510","Strada Casale","44.183093195887","11.6998825271831","0",""
"778560","Cimitero","44.1751282656082","11.6926799912593","0",""
"778570","Cimitero","44.1748280985668","11.692886484821","0",""
"778600","S.Eufemia","44.1708708316873","11.690424754387","0",""
"778610","S.Eufemia","44.1708565692851","11.6907243069179","0",""
"778640","Valpiana","44.1694187491488","11.6866362906873","0",""
"778650","Valpiana","44.1695015563655","11.6867901495985","0",""
"778680","Molino S.Eufemia","44.1668841380813","11.68462001189","0",""
"778690","Molino S.Eufemia","44.1659587011073","11.6841577616706","0",""
"778780","S.Cassiano","44.1471344804527","11.6879969711601","0",""
"778790","S.Cassiano","44.1472927175816","11.6883421080362","0",""
"778820","Boesimo","44.1399312652326","11.6846125836376","0",""
"778830","Boesimo","44.139972209683","11.6847207236049","0",""
"778840","S.Cassiano,Fr.85","44.1378022971677","11.6834910517793","0",""
"778850","S.Cassiano,81","44.1369828033875","11.6834239076538","0",""
"778880","S.Cassiano,82","44.1308534562053","11.6805161810898","0",""
"778890","S.Cassiano,Fr.82","44.1309492570122","11.6807305163484","0",""
"778920","Bv. S. Martino","44.1233628116686","11.6780674867061","0",""
"778930","Bv. S. Martino","44.1233555479628","11.6783771172675","0",""
"778940","S.Martino,30","44.1188674648589","11.675654742987","0",""
"778950","S.Martino,Fr.30","44.118705200162","11.6758173791863","0",""
"778960","S.M. In Gattara","44.1178938147271","11.6726364418621","0",""
"778970","S.M. In Gattara","44.1177894899814","11.6726317359941","0",""
"779000","Biblioteca","44.2233063136278","11.6237115749514","0",""
"779010","Biblioteca","44.2233836060991","11.6240035029112","0",""
"779100","Consorzio Agrar.","44.2278459852021","11.629231879127","0",""
"779110","Consorzio Agrar.","44.2276013341012","11.6291390897832","0",""
"779140","Cimitero","44.2294123358229","11.6308299588905","0",""
"779150","Cimitero","44.2294510952179","11.6311148681982","0",""
"779180","Corpo Forestale","44.2200583562452","11.6177792463689","0",""
"779190","Corpo Forestale","44.220142971335","11.6179893279948","0",""
"779340","Abbazia Valsenio","44.2385660247457","11.6396227544286","0",""
"779350","Abbazia Valsenio","44.2386884590988","11.6399820060374","0",""
"779380","Del Monte","44.2447971954339","11.6467057153268","0",""
"779390","Del Monte","44.244195839777","11.6462071020341","0",""
"779440","Montironi","44.2517388662795","11.6570583773256","0",""
"779450","Montironi","44.2515647111559","11.6573133450012","0",""
"779480","Firenze,95","44.2560661667188","11.6589892014671","0",""
"779490","Firenze,Fr.93","44.2557451125239","11.6589131146505","0",""
"779600","Campo Sportivo","44.2147513362574","11.6177385061157","0",""
"779610","Campo Sportivo","44.2152426389115","11.6178250835063","0",""
"779620","Cantone-Rufillo","44.2118507269864","11.6169898758104","0",""
"779630","Cantone-Rufillo","44.2116367729998","11.6170873251504","0",""
"779660","Breta,4a","44.2030374590082","11.6095488685231","0",""
"779670","Breta,Fr.4a","44.2027202977418","11.6094508742549","0",""
"779700","Breta Cantoniera","44.1959569204603","11.6017731880807","0",""
"779710","Campalmonte","44.1962668223016","11.6021478669243","0",""
"779740","Cozzo-Banzuole","44.1909563180938","11.6035057221696","0",""
"779750","Cozzo-Banzuole","44.1907240974673","11.6035797993963","0",""
"779760","Cozzo,Fr.19","44.1860551751346","11.5979305327869","0",""
"779770","Cozzo,15","44.1862593857542","11.5982463536009","0",""
"779780","S.Lorenzo","44.1826688336589","11.5941806917698","0",""
"779790","S.Lorenzo","44.1824208978435","11.5942713105171","0",""
"779820","S.Lorenzo Chiesa","44.1752139371203","11.5916827513148","0",""
"779830","S.Lorenzo Chiesa","44.1753416888488","11.5918325015751","0",""
"779840","Mercatale","44.1719229430304","11.5885945695308","0",""
"779850","Mercatale","44.1722647649977","11.5892377477421","0",""
"779980","Zattaglia","44.225844193333","11.6951658959145","0",""
"779991","Zattaglia","44.2259658572132","11.6954461651513","0",""
"780000","Autostazione","44.2888662081359","11.8873815662926","0",""
"780001","Autostazione","44.2888171708148","11.8873346787755","0",""
"780010","Corso Saffi","44.2843776273014","11.8869884383128","0",""
"780029","C.So Saffi, 8","44.2854981370395","11.8841455623844","0",""
"780160","P.Le Sercognani","44.290375965107","11.8852835107106","0",""
"780170","P.Le Sercognani","44.290604078224","11.8847356811354","0",""
"780190","Iv Novembre,57","44.2908259550621","11.8823676295702","0",""
"780210","Faenza Fs","44.2930276010378","11.8832399970614","0",""
"780220","Faenza Fs","44.2932143907384","11.8829733883047","0",""
"780221","Faenza Fs","44.2932594880017","11.8830031720057","0",""
"780223","Semaforo Baccarini-Tolosano","44.2910833139778","11.8815690731078","0",""
"780230","Iv Novembre","44.2907264147497","11.8823878247785","0",""
"780233","Semaforo Iv Novembre-Baccarini","44.2910191004351","11.8815818097019","0",""
"780243","Semaforo Tolosano-Baccarini","44.2910012753208","11.8814764077211","0",""
"780260","Xx Settembre","44.2862858128491","11.88375965202","0",""
"780270","Laghi","44.2923070131846","11.8807331231615","0",""
"780280","Valgimigli","44.2931607478693","11.876822071128","0",""
"780290","Zambrini","44.290921252145","11.876701603289","0",""
"780300","M. Ungheresi","44.2890990217551","11.8776269569257","0",""
"780310","Pal. Esposizioni","44.2883797578436","11.8772044056156","0",""
"780320","Mazzini Ospedale","44.2890862847044","11.8753138731105","0",""
"780330","Mazzini Ospedale","44.2892228898077","11.8748944043314","0",""
"780340","Pal. Esposizioni","44.2882656811803","11.8771538000594","0",""
"780350","M. Ungheresi","44.2891476126185","11.8776311236405","0",""
"780370","Valgimigli","44.2912876950112","11.8755151288077","0",""
"780380","Valgimigli","44.2930519742731","11.876963245038","0",""
"780390","Laghi","44.2923322197133","11.8804735009691","0",""
"780600","Tolosano Osped.","44.2897593908976","11.8746824578356","0",""
"780610","Bv. M. Ungheresi","44.2902671940659","11.8777529400031","0",""
"780690","C.So Garibaldi","44.2880716204411","11.8855541262332","0",""
"780693","Semaforo Mittarelli-Europa","44.2842708342038","11.887398165055","0",""
"780710","C.So Garibaldi","44.2896897502846","11.8867608965867","0",""
"780720","Caldesi","44.2917824509925","11.8871334561028","0",""
"780740","Cantinelli","44.2902401692914","11.8765636952242","0",""
"780750","Zambrini","44.2904376879369","11.8778465015439","0",""
"780760","Tolosano Osped.","44.2897475506294","11.8745040942963","0",""
"780900","Baccarini","44.2905679332055","11.8811768246527","0",""
"780910","Campidori ","44.2888181290785","11.8810210260811","0",""
"780920","Rione Rosso","44.2884811691077","11.8829393178267","0",""
"781010","P.Zza Bologna","44.2812020518845","11.8983634207053","0",""
"781040","Forlivese","44.2810213482045","11.8951965314058","0",""
"781050","C.So Europa","44.2826164725717","11.8914650522921","0",""
"781060","C.So Europa,6","44.2833222633174","11.8896860047944","0",""
"781070","C.So Europa,Fr.6","44.2832613394682","11.889579411985","0",""
"781073","Semaforo Europa-Saffi","44.2840881285477","11.8877623669162","0",""
"781080","C.So Europa,30","44.2825211224317","11.8914354393195","0",""
"781090","C.So Europa,88","44.2818207768523","11.8931379831284","0",""
"781110","Forlivese","44.2809186311681","11.8953418634063","0",""
"781120","F.Lli Rosselli","44.282587524447","11.8953675286733","0",""
"781130","Cova","44.2833076311546","11.8964911036968","0",""
"781140","Testi","44.2837365238554","11.8978239243346","0",""
"781150","Fornarina","44.282316317698","11.8995085346259","0",""
"781160","Saviotti","44.2816500283624","11.9023455346254","0",""
"781170","Lega","44.2801895654622","11.9042297518367","0",""
"781180","Riccione","44.2799947576468","11.9016768759426","0",""
"781190","Riccione","44.2809291976714","11.8998434624687","0",""
"781400","Fornarina-Lega","44.2810720586268","11.9043271487261","0",""
"781500","Rosselli-Cova","44.2822356378658","11.8955231479074","0",""
"782010","Vittorio Veneto","44.2917701379481","11.8668752172954","0",""
"782020","Vittorio Veneto","44.2894599280576","11.8675817872511","0",""
"782030","Portisano","44.285853912373","11.8653053004428","0",""
"782040","Corbari Giardino","44.2844786724719","11.8627068349751","0",""
"782050","Corbari,60","44.2833418621161","11.8599320865408","0",""
"782060","Corbari,128","44.2815984538544","11.8572909376553","0",""
"782061","Corbari,128","44.2815718994544","11.8572542080362","0",""
"782070","Canal Grande","44.2800161658627","11.8561239452499","0",""
"782080","Firenze","44.2779335895448","11.8544717668501","0",""
"782090","Firenze-Zamboni","44.2791231382032","11.8603301021678","0",""
"782123","Semaforo Marconi-Stradone","44.2826155237289","11.8767975901411","0",""
"782133","Semaforo Stradone-Marconi","44.2827312167343","11.8767079966404","0",""
"782180","Bertoni","44.278290418426","11.8650540151405","0",""
"782200","Salvemini","44.2802060312472","11.8653588955278","0",""
"782210","Martiri Spagnoli","44.2809261761134","11.8688025547107","0",""
"782230","Marconi Cimitero","44.2814095423719","11.8712046366397","0",""
"782240","Circonvallazione","44.2818657761347","11.8732520342212","0",""
"782250","Marconi Edicola","44.2822503808795","11.8749964522039","0",""
"782260","P.Zza Fratti","44.2832305864404","11.8764692092474","0",""
"782270","Stacchini","44.2851480697214","11.8746867223288","0",""
"782280","Stradone","44.287378229143","11.8726591255435","0",""
"782293","Semaforo Oriolo-Mazzini","44.2899072529243","11.8731997427137","0",""
"782320","Volpaccino","44.2893253647241","11.8693194864206","0",""
"782340","V. Veneto-Zara","44.2917153198469","11.8670018359109","0",""
"782560","Batticuccolo","44.2821268873722","11.8764822689874","0",""
"782600","Lapi","44.2814454008982","11.8817715974704","0",""
"782610","Lapi","44.2816265636417","11.8818610906016","0",""
"782613","Semaforo Lapi-Stradone","44.2826208314519","11.8769441318656","0",""
"782650","Marconi Edicola","44.2825357938353","11.8758455572693","0",""
"782670","Martiri Spagnoli","44.2808872978421","11.8682532466093","0",""
"782700","Degli Insorti","44.2873889818712","11.870846323269","0",""
"782710","Degli Insorti","44.2873464818138","11.8707546148222","0",""
"782720","Stradone","44.2873079161885","11.8726452306834","0",""
"782780","Canal Grande,67","44.2836028374862","11.8651408668817","0",""
"782790","Canal Grande,76","44.2836978598979","11.8650892690437","0",""
"782800","D.G. Verita","44.2771146688884","11.8775321523824","0",""
"782810","D.G. Verita","44.2773133105451","11.8774635457377","0",""
"782820","Elem. Don Milani","44.2828736838097","11.8575839168521","0",""
"782821","Elem. Don Milani","44.2828736838097","11.8575839168521","0",""
"782840","Corbari,Fr.70","44.2829472477544","11.8591041091094","0",""
"782860","Canal Grande,175","44.2800901555126","11.8564081076676","0",""
"783273","Semaforo Mazzini-Oriolo","44.2899371377665","11.8731294427869","0",""
"783283","Semaforo Mazzini-Gallo Marcucci","44.2899690079336","11.8732939352221","0",""
"783350","Oberdan Stadio","44.2916383870546","11.8694119647329","0",""
"783390","Oberdan Mensa","44.2932929968205","11.8651408428015","0",""
"783410","Oberdan Ausl","44.2932376611983","11.8648874631354","0",""
"783430","Oberdan Bucci","44.2911624297629","11.8700156423168","0",""
"783500","Laghi-Marcucci","44.293909189881","11.8758183022434","0",""
"783550","Laghi-Marcucci","44.2942131153864","11.8753686916015","0",""
"783600","Medaglie D'Oro","44.2939163810609","11.8740581338384","0",""
"783650","Medaglie D'Oro","44.2938968965693","11.8739381050945","0",""
"783900","Oberdan,1","44.2953450189999","11.8597228810749","0",""
"783910","Oberdan,Fr.1","44.2953064364265","11.8601847944066","0",""
"784000","Formellino","44.3007774903344","11.8976564256379","0",""
"784010","Formellino","44.3008336226796","11.8976060614345","0",""
"784100","Gatti","44.296049886034","11.8894674517299","0",""
"784110","Gatti","44.2960043270531","11.8892044891134","0",""
"784120","S.Silvestro,2","44.2960820142569","11.8870307892976","0",""
"784130","S.Silvestro","44.2963359232561","11.886126594851","0",""
"784260","S.Rocco Scuola","44.2977240381794","11.8918987363785","0",""
"784280","Sp.302-S.Rocco","44.2996487745052","11.8944578111265","0",""
"784290","Giovannipaolo Ii","44.3019368900423","11.8944185239455","0",""
"784310","Giovannipaolo Ii","44.3021458909987","11.8936153119503","0",""
"784320","Sp.302-S.Rocco","44.2999884294228","11.8952642664429","0",""
"784340","S.Rocco Scuola","44.2976275054406","11.8917344328122","0",""
"784420","Granarolo-Gubbio","44.3053120645827","11.8944354308543","0",""
"784440","Granarolo Cnr","44.3092139379928","11.8971286238272","0",""
"784460","Granarolo Iemca","44.3147207366885","11.9005819650075","0",""
"784530","Granarolo Agip","44.318306294757","11.9026042239521","0",""
"784540","Granarolo Iemca","44.3145731671585","11.9003579550286","0",""
"784550","Granarolo Inps","44.3123120616448","11.8988547338224","0",""
"784560","Granarolo Cnr","44.3093540549035","11.8969286487235","0",""
"784580","Granarolo-Gubbio","44.3059614591516","11.8947431835519","0",""
"784600","Le Maioliche","44.3288820441215","11.9018390772293","0",""
"784601","Le Maioliche","44.3288375472305","11.9019170830802","0",""
"784720","S.Silvestro,41","44.3010827736968","11.8845258231012","0",""
"784730","S.Silvestro,41","44.300786370831","11.8842601443774","0",""
"784800","S.Silvestro,162","44.3145524457693","11.8915641323142","0",""
"784810","S.Silvestro,119","44.3145214186988","11.8912067227542","0",""
"785040","Emilia-Ramona","44.2660873402618","11.9318129176902","0",""
"785050","Emilia-Ramona","44.2665741709932","11.9310152570941","0",""
"785080","Emilia Cosina","44.2567976668571","11.954737989167","0",""
"785090","Emilia Cosina","44.2571845863891","11.9542588216156","0",""
"785120","Corleto","44.2687081493926","11.9660600412151","0",""
"785130","Corleto","44.2694300802849","11.9662644469382","0",""
"785160","Colombarina","44.2767000767926","11.9727162855959","0",""
"785170","Colombarina","44.2772966466767","11.9729508693657","0",""
"785200","Corleto,28","44.2832490971725","11.9775534273945","0",""
"785210","Corleto,Fr.26","44.2823543337174","11.9765797603778","0",""
"785220","Corleto,32-Prati","44.2891641152341","11.9819533002812","0",""
"785230","Prati","44.2896691611562","11.9820785007435","0",""
"785260","Gasparetta","44.2991189829339","11.9926982748063","0",""
"785270","Gasparetta","44.2990964336551","11.9921179100692","0",""
"785300","Corleto,88","44.308695016078","12.0056877579893","0",""
"785310","Corleto,Fr.88","44.3071926812925","12.0033216385703","0",""
"785340","Corleto,116","44.3133135500984","12.0099862025377","0",""
"785350","Corleto,259","44.3137720249008","12.0098065319129","0",""
"785380","Corleto,156-Cer","44.3228777032169","12.0201544209438","0",""
"785390","Corleto Cer","44.3229859552019","12.0200079995895","0",""
"785400","Corleto,178","44.3270607040449","12.0195878030781","0",""
"785410","Corleto,309","44.3269363201209","12.0191939894465","0",""
"785530","S.Giovannino","44.2871507934616","11.9200930109416","0",""
"785540","Reda,88","44.2888508089281","11.9295344188988","0",""
"785550","Reda,Fr.82","44.289964111812","11.9300736036344","0",""
"785580","S.Barnaba Chiesa","44.2956407961966","11.9469447243474","0",""
"785590","S.Barnaba Chiesa","44.2957291896479","11.9469347840581","0",""
"785620","Reda Edicola","44.3025654278453","11.9693929309568","0",""
"785630","Reda Edicola","44.3028759952753","11.9691655691532","0",""
"785640","Reda Chiesa","44.3051909871367","11.9742192054143","0",""
"785650","Reda Chiesa","44.3051680528682","11.9739246837226","0",""
"785660","Birandola,178","44.3076151226535","11.9748454245539","0",""
"785670","Birandola,170","44.3076696536538","11.9747607454008","0",""
"785700","Reda-Pianetta","44.3141409941852","11.9810011963709","0",""
"785710","Reda-Pianetta","44.3146962886603","11.9817315110704","0",""
"785740","Reda-Camilli","44.3185524401731","11.9865346761639","0",""
"785750","Reda-Camilli","44.3185607377788","11.9864642605526","0",""
"785760","Albereto","44.3218009017296","11.9903632859892","0",""
"785770","Albereto","44.3218577794622","11.9903224492941","0",""
"785800","Reda-Zannona","44.3275469563734","11.9958176328199","0",""
"785810","Reda-Zannona","44.3273107206354","11.9957629564941","0",""
"785820","Reda,319","44.3337713963761","11.9963909525766","0",""
"785830","Reda,319","44.3337985913628","11.9962854222751","0",""
"786140","Sp.302-Tombacce","44.3245912621333","11.9508655510261","0",""
"786160","Ravegnana,Fr.281","44.3267966063798","11.9558874554854","0",""
"786170","Ravegnana,281","44.3267805142831","11.9555354850416","0",""
"786200","P.Castellina,282","44.3304636493131","11.9639658965492","0",""
"786210","P.Castellina,293","44.330210969866","11.9630877467679","0",""
"786240","Sp.302 Osteria","44.3328272527815","11.984504681304","0",""
"786300","Sp.302 Bolognini","44.3409381258069","12.0016884874556","0",""
"786310","Sp.302 Bolognini","44.3409706039082","12.0016016822166","0",""
"786440","Fossolo,54","44.3447378866327","11.9749698306103","0",""
"786450","Fossolo,43","44.3447649005754","11.974935067526","0",""
"786480","Lovatella Cer","44.3477248779408","11.9812978080727","0",""
"786490","Lovatella Cer","44.3480129111902","11.9816826540663","0",""
"786500","Fossolo-Rasponi","44.3512708422793","11.9879180771538","0",""
"786510","Fossolo-Rasponi","44.3513063282592","11.9873879007435","0",""
"786540","Fossolo Chiesa","44.3561542035309","11.9969699462753","0",""
"786550","Fossolo Chiesa","44.3561711360857","11.9965993964226","0",""
"786600","Madrara,64","44.3685249782264","11.9858370043822","0",""
"786610","Madrara,64","44.3686820095325","11.9853023080643","0",""
"786700","Accarisi,5","44.3286170711465","11.9514334489315","0",""
"786710","Accarisi,5","44.3284882653429","11.9510791853992","0",""
"786720","P. Cesato Chiesa","44.3362472603666","11.9574249408661","0",""
"786730","P. Cesato Chiesa","44.3363339711296","11.9573503665451","0",""
"786760","Accarisi-Badia","44.346007366179","11.9627298914562","0",""
"786770","Accarisi-Badia","44.3451837690044","11.9619958646294","0",""
"786780","Repubblica","44.3516130041122","11.9631932079476","0",""
"786790","Repubblica","44.3510326300012","11.9630083605116","0",""
"786820","Accarisi-Fabbra","44.3555755902558","11.9658382643807","0",""
"786830","Accarisi-Fabbra","44.3556136541437","11.9652915400697","0",""
"786840","Accarisi,216","44.361493702382","11.9671513188285","0",""
"786850","Accarisi,Fr.216","44.3612149375837","11.9667394884521","0",""
"786860","Bulzacca","44.3651521503027","11.9695809491432","0",""
"786870","Bulzacca","44.365347247765","11.9692975395404","0",""
"786900","Accarisi-Madrara","44.3700145562064","11.9719131655941","0",""
"786910","Accarisi-Madrara","44.3698466921602","11.9715833717989","0",""
"787000","S.Andrea","44.3313697954854","11.9127555118487","0",""
"787010","S.Andrea","44.3311396965641","11.9123176710379","0",""
"787020","S.Andrea Chiesa","44.3358605960081","11.9163201205248","0",""
"787030","S.Andrea Chiesa","44.3362619399244","11.9162690525378","0",""
"787080","S.Andrea,10","44.3379291340001","11.9002838269678","0",""
"787100","S.Andrea,58","44.3409483698319","11.8928267119382","0",""
"787110","S.Andrea,55","44.3414443949842","11.8908987258575","0",""
"787150","S.Andrea,Fr.80","44.3449301445339","11.8821453878681","0",""
"787400","Granarolo Fs","44.3575698171692","11.9371878905529","0",""
"787420","Granarolo Fs","44.3568628820505","11.9365508656027","0",""
"787430","Granarolo F.","44.3592019545837","11.9340943709992","0",""
"787500","Pana,2","44.3190795424518","11.8959947890804","0",""
"787510","Pana,Fr.2","44.3189067037786","11.8958955578321","0",""
"787520","Pana","44.321720667484","11.8940235478924","0",""
"787530","Pana","44.3215305868281","11.8940187638078","0",""
"787560","Pana,142","44.3284861968839","11.8875402417453","0",""
"787570","Pana,39","44.3282706917602","11.8877626538328","0",""
"787600","Pana,214","44.332299685314","11.8778177416686","0",""
"787601","Pana,214","44.3323549800783","11.8778610626449","0",""
"787620","Pana,244","44.3355628837395","11.8696023531726","0",""
"787621","Pana,244","44.3355749788648","11.869613169854","0",""
"787630","Pana,101","44.3353510309347","11.8698113277686","0",""
"787631","Pana,101","44.3353357910734","11.8698039705358","0",""
"787660","Cassanigo,Fr.21","44.3359592748175","11.8897724643162","0",""
"787670","Cassanigo,19","44.3360122032713","11.889388726842","0",""
"787700","Lugo-S.Andrea","44.3465946774829","11.8676412001385","0",""
"787710","Lugo-S.Andrea","44.3448743453037","11.8678497291907","0",""
"787760","Sp.29 Trattoria","44.3310022320272","11.8617088386706","0",""
"787770","Lugo Pilastrino","44.330872333297","11.862124179442","0",""
"787800","Lugo,Fr.92","44.3233194792299","11.8560813792931","0",""
"787810","Lugo,100","44.3238018053628","11.8568095972995","0",""
"787820","S.P. In Laguna","44.3209042157551","11.8541366960413","0",""
"787830","S.P. In Laguna","44.3209974495902","11.8547878795854","0",""
"787840","Prosciutta,99","44.3203643231431","11.8530762352689","0",""
"787850","Prosciutta,Fr.99","44.3202266806018","11.8529642225175","0",""
"787900","Prosciutta,59","44.3228944096433","11.846356758355","0",""
"787910","Prosciutta,Fr.59","44.3228352015685","11.846276141052","0",""
"787940","Pontarchi,Fr.34","44.316449673172","11.8369062941375","0",""
"787950","Pontarchi,34","44.3166111548191","11.836929127903","0",""
"788000","Ist. Persolino","44.2737705201583","11.8483377005213","0",""
"788100","Firenze,Fr.203","44.2767239427903","11.8511871724398","0",""
"788110","Firenze,201","44.2768601338489","11.8514854012156","0",""
"788160","Firenze,Fr.455","44.2686017690341","11.8439090882753","0",""
"788170","Firenze,453","44.2686499877478","11.8444204484214","0",""
"788200","Orto Fiori","44.2636690822959","11.8356163099113","0",""
"788210","Orto Fiori","44.2638003806809","11.8360976850852","0",""
"788240","Firenze,374","44.2589292336986","11.8275123220046","0",""
"788250","Firenze,557","44.2588459856868","11.8276737375258","0",""
"788310","Firenze-605/613","44.2520605965859","11.8182010349421","0",""
"788900","Pieve Ponte","44.3022764459209","11.8424511510304","0",""
"788910","Pieve Ponte","44.3025569824828","11.8421036514089","0",""
"788950","Lugo Sottostrada","44.3071885377088","11.8438167444052","0",""
"788951","Lugo Sottostrada","44.3071709007068","11.8438470235807","0",""
"789300","Tuliero","44.2640421002252","11.8741349290027","0",""
"789310","Tuliero","44.263791057862","11.8739747889756","0",""
"789360","Rivalta Chiesa","44.2397316170701","11.8801942756728","0",""
"789370","Rivalta Chiesa","44.2401621811584","11.8799787556723","0",""
"789420","Marzeno Chiesa","44.2281421498792","11.8681438423022","0",""
"789430","Marzeno Chiesa","44.2284380338319","11.8677886983949","0",""
"789460","Marzeno","44.2268333233368","11.8599832697589","0",""
"789470","Marzeno","44.2270854922434","11.8594257132843","0",""
"789520","Scavignano,Fr.26","44.2219910481422","11.8369661694068","0",""
"789530","Scavignano,26","44.2223044395483","11.8370077305145","0",""
"789580","Ponte Nuovo","44.2086120379168","11.8187651817421","0",""
"789590","Ponte Nuovo","44.2091741411625","11.818381366388","0",""
"893000","P.Zza Matteotti","44.1569721350523","11.7925073861958","0",""
"893001","P.Zza Matteotti","44.1569345516673","11.7924857599646","0",""
"893040","Savelli","44.160394467599","11.7943829497647","0",""
"893050","Savelli","44.1606215173335","11.7942546997895","0",""
"893080","Carnelli","44.1649042747086","11.7987324629191","0",""
"893090","Carnelli","44.1649110815935","11.7984548147603","0",""
"893140","Marconi","44.1548619402146","11.7901579400034","0",""
"893150","Marconi","44.1550679388637","11.7899161990261","0",""
"893200","Zona Artigianale","44.1753712582752","11.8167298530107","0",""
"893210","Zona Artigianale","44.1757814633445","11.8167096779326","0",""
"893240","Sp.20-S.Casciano","44.1794685483383","11.8190368370852","0",""
"893250","Sp.20-S.Casciano","44.1795037936616","11.8187670989472","0",""
"893280","Tossino","44.1856170530728","11.8204622114293","0",""
"893290","Tossino","44.1855786183309","11.8200896207467","0",""
"893320","Cantina Sociale","44.194975554793","11.8194190236906","0",""
"893330","Cantina Sociale","44.1947700835753","11.8190582697826","0",""
"893360","Ponte Fregiolo","44.1331565321069","11.7808003555465","0",""
"893370","Ponte Fregiolo","44.1345001646953","11.7809891405447","0",""
"893400","Campatello","44.1173556577432","11.7744706260617","0",""
"893410","Campatello","44.1172388351703","11.7741807961673","0",""
"893500","Tredozio Pesa","44.0786518058049","11.7421476352056","0",""
"893520","Tredozio Piazza","44.0787465177717","11.7431192477159","0",""
"893530","Tredozio Scuole","44.0761619201898","11.7392966736297","0",""
"893560","Campo Sportivo","44.0809771180843","11.7449053099274","0",""
"893570","Campo Sportivo","44.080935719907","11.744645645113","0",""
"893600","Monastero","44.086029516832","11.7463883138507","0",""
"893610","Monastero","44.0859146760441","11.7462111490759","0",""
"893640","Sp.20,12850","44.0988277516474","11.7602015237603","0",""
"893650","Sp.20,13150","44.0968153187371","11.7580888178369","0",""
"894030","Forli Punto Bus","44.2229803010029","12.0557597273659","0",""
"894120","Matteotti","44.2218994783873","12.0480216858137","0",""
"894130","Matteotti","44.2219162387111","12.0478075764891","0",""
"894150","Galilei","44.2211737055244","12.0526010530749","0",""
"894160","Galilei","44.2203553033323","12.0521055227236","0",""
"894170","Boario","44.2210209409219","12.0545163422173","0",""
"894200","Liberta Scuole","44.2185929919314","12.050764218023","0",""
"894210","Liberta Scuole","44.2185098814018","12.0505098867654","0",""
"894230","Vittoria A","44.2178623168875","12.0499294745084","0",""
"894280","Colombo","44.2254288141439","12.0496950471304","0",""
"894290","Colombo","44.2251300295371","12.0500377689041","0",""
"894300","Forli Barriera","44.2257184671103","12.046637225647","0",""
"894310","Forli Barriera","44.2253225641631","12.046627429882","0",""
"894340","Foro Boario","44.2290737213682","12.0540830708603","0",""
"894350","Foro Boario","44.229628098716","12.0545216068351","0",""
"894400","Forli Cimitero","44.2319291356581","12.0589338515957","0",""
"894410","Forli Cimitero","44.2324014652591","12.0591136050086","0",""
"894440","Ospedaletto","44.2362606870863","12.0624477967498","0",""
"894450","Ospedaletto","44.2365482942048","12.0625328520662","0",""
"894500","Vittorio Veneto","44.2283509139682","12.0417129976399","0",""
"894510","Vittorio Veneto","44.2287401412264","12.0414028831756","0",""
"894520","Italia,56","44.2284989067687","12.0351170869368","0",""
"894530","Italia,Fr.54b","44.2286745119027","12.0347421914521","0",""
"894540","Portonaccio","44.2267845826556","12.0296099449612","0",""
"894550","Italia,23","44.227557345844","12.0294096682799","0",""
"894580","Mcdonald'S","44.228956546788","12.0227153762187","0",""
"894590","Mcdonald'S","44.2292490144769","12.0225500604641","0",""
"894600","Bv. Sillaro","44.2342619952346","12.0103377209055","0",""
"894610","Bv. Sillaro","44.2345375208823","12.0101313959432","0",""
"894710","Cucchiari","44.2163554779129","12.0541645827988","0",""
"894730","Forli Stadio","44.2146945531672","12.0581854880349","0",""
"894770","Casermette","44.2110627170289","12.0671331975133","0",""
"894900","C.Studi-Moro","44.2100268230382","12.0390552880124","0",""
"894920","C.Studi-Turati","44.2121764276247","12.039183309893","0",""
"894960","Aeronautico","44.2009513574893","12.0624600720467","0",""
"895020","Electrolux","44.2403540514944","11.994987295727","0",""
"895030","Electrolux","44.2411118529086","11.9941040658129","0",""
"895060","Villanova Di Fo","44.2476587063971","11.9773341017807","0",""
"895070","Villanova Di Fo","44.2478773132635","11.9772712435029","0",""
"895260","Vill. Bufalini","44.2403915403067","12.0691356510756","0",""
"895270","Vill. Bufalini","44.2404204478534","12.0688641529888","0",""
"895280","Villa Gigliola","44.2446721695932","12.0765321333035","0",""
"895290","Villa Gigliola","44.2446218015161","12.0759959861634","0",""
"895320","Imperatore","44.2465195461579","12.0797628335591","0",""
"895330","Imperatore","44.2467366834372","12.0795630321802","0",""
"895340","Pieve Acquedotto","44.2487876267659","12.0835538034369","0",""
"895350","Bv. Poggiali","44.2497706393564","12.0847929247215","0",""
"895380","Gagliarda","44.2596800749766","12.0995278653363","0",""
"895390","Gagliarda","44.2599803292879","12.0993882360579","0",""
"895420","Pass. Borgo Sisa","44.2708799570708","12.1020399160536","0",""
"895430","Borgo Sisa","44.270923983712","12.1018164429432","0",""
"895460","Durazzanino","44.2801287038353","12.1055117209926","0",""
"895470","Durazzanino","44.2806171798505","12.1054368450163","0",""
"895520","Bagnolo","44.2416942272606","12.0976230168923","0",""
"895530","Bagnolo","44.2419876555052","12.0966999910427","0",""
"895560","Carpinello","44.2379884331169","12.1171919822902","0",""
"895570","Carpinello","44.2381536590189","12.1172784038516","0",""
"895600","Rotta","44.246406827842","12.1235847545073","0",""
"895610","Rotta","44.2462492346177","12.123306145572","0",""
"895640","Dieci Martiri","44.2569139591431","12.129546416473","0",""
"895650","Dieci Martiri","44.2567384500834","12.1291518084708","0",""
"895700","Cervese,Fr.272","44.2375387511567","12.1416848527679","0",""
"895710","Cervese,272","44.2377013772801","12.1410097894196","0",""
"895740","Pievequinta","44.2377603499451","12.1494057266396","0",""
"895750","Pievequinta","44.2379602501604","12.1489302769595","0",""
"895800","Petrosa-Cervese","44.2457580880737","12.1632659954038","0",""
"895810","Petrosa-Cervese","44.2458213138267","12.1629337396059","0",""
"895860","Caserma","44.2427710046033","12.17557559144","0",""
"895870","Caserma","44.2434789922125","12.1761720315663","0",""
"896000","Forlimpopoli","44.1866005941678","12.1261585043301","0",""
"896010","Forlimpopoli","44.1866218021508","12.1248318431408","0",""
"896140","Chiesa","44.1838607234264","12.1325067767571","0",""
"896150","Chiesa","44.1841658348546","12.1322802349982","0",""
"896160","Madonna Del Lago","44.1774268195917","12.1479660365646","0",""
"896170","Madonna Del Lago","44.1777709684411","12.1478267425644","0",""
"896720","Bv. Panighina","44.1733001879865","12.1581905331523","0",""
"896730","Bv. Panighina","44.1733312865493","12.1586861186024","0",""
"896740","Z.I. Panighina","44.1741106356519","12.1622524519755","0",""
"896750","Z.I. Panighina","44.1741896919915","12.1619382951885","0",""
"896760","La Magnana","44.1823852235493","12.1674384699836","0",""
"896770","La Magnana","44.1831510330361","12.1678545233765","0",""
"896780","Zacchi","44.1874672655273","12.1742770521474","0",""
"896790","Zacchi","44.1876786683822","12.1741858123118","0",""
"896800","Chiesa S.Croce","44.1905397501724","12.1784547763904","0",""
"896810","Chiesa S.Croce","44.190819914632","12.1780291377243","0",""
"896820","Bv. S.Cristoforo","44.195138899279","12.1845336044495","0",""
"896830","Bv. S.Cristoforo","44.195303820526","12.1843051713859","0",""
"896840","S.Maria Nuova","44.199088285556","12.1881031914945","0",""
"896850","S.Maria Nuova","44.1991323840087","12.1878343268444","0",""
"896860","S.M.Nuova Scuola","44.200167235901","12.1889156504524","0",""
"896870","S.M.Nuova Scuola","44.200099377885","12.1885815967788","0",""
"896880","S.M.Nuova Chiesa","44.2012606102337","12.1897971239661","0",""
"896890","S.M.Nuova Chiesa","44.201314998","12.1895966202259","0",""
"896920","Spada","44.2059057296564","12.1937762659153","0",""
"896930","Spada","44.2059440580041","12.193400334265","0",""
"896960","Cimitero","44.2144938471948","12.2015324834777","0",""
"896970","Cimitero","44.2145066734883","12.2010134996106","0",""
"896980","S.P.In Guardiano","44.2190509765567","12.2089738192981","0",""
"896990","S.P.In Guardiano","44.2193116177445","12.2089253979192","0",""
"897070","Cesena Punto Bus","44.144863913825","12.248463741007","0",""
"897140","Europa","44.145266990685","12.2423843728342","0",""
"897150","Europa","44.1449457944952","12.2424929947107","0",""
"897300","Ponte Nuovo","44.1398738188556","12.2344176480119","0",""
"897310","Ponte Nuovo","44.1399080742287","12.2334706916846","0",""
"897340","Torre Del Moro","44.1441094512735","12.2228691879677","0",""
"897350","Torre Del Moro","44.1440617484555","12.2228240803083","0",""
"897360","Versari","44.1466424261849","12.2190643325694","0",""
"897370","Versari","44.146277542737","12.2186715314685","0",""
"897500","Ex Mercato","44.1516406177934","12.2428629071186","0",""
"897510","Ex Mercato","44.1518775415775","12.2426516317825","0",""
"897540","Bucci Almerici","44.1571825243029","12.2426511802302","0",""
"897550","Bucci Almerici","44.1594827149673","12.2425571887298","0",""
"897620","Xxv Aprile","44.148098667401","12.2499120242259","0",""
"897630","Xxv Aprile","44.147870384024","12.2493445551735","0",""
"897640","Peep S. Egidio","44.1555160271801","12.2627296178766","0",""
"897650","Peep S. Egidio","44.155200422782","12.2630036793905","0",""
"897660","Torri S. Egidio","44.1553078592022","12.2587541352219","0",""
"897670","Torri S. Egidio","44.1549980345486","12.2598057864697","0",""
"897680","Madonna Schioppo","44.151338754367","12.2454087397563","0",""
"897690","Madonna Schioppo","44.1511045684757","12.2457092821657","0",""
"897700","Cervese","44.1473060647115","12.2556201183434","0",""
"897710","Cervese,Fr.364","44.1474686168361","12.2555246059038","0",""
"897740","Cervese,1102","44.1521317167462","12.2614549612645","0",""
"897750","Cervese,Fr.1429","44.1525119185764","12.2616391500885","0",""
"898120","Orogel","44.1686582063789","12.2185201646823","0",""
"898130","Orogel","44.1682807915474","12.2183942249118","0",""
"898200","Pievesestina","44.1856012810398","12.2177613575082","0",""
"898210","Pievesestina","44.1859216964249","12.2175639008108","0",""
"898220","Piazza","44.1887725012628","12.2176414864553","0",""
"898230","Piazza","44.1886692223794","12.2175056092748","0",""
"898260","Dismano-Almerici","44.1933591788078","12.2174650944635","0",""
"898270","Dismano-Almerici","44.1931638328965","12.2172546280027","0",""
"898280","Dismano-Fornace","44.1977154653366","12.2173501314235","0",""
"898290","Dismano-Fornace","44.1991058751668","12.2168368861847","0",""
"898320","Artig. S.Andrea","44.2088036677542","12.2168527891307","0",""
"898330","Artig. S.Andrea","44.2084320596319","12.2165846220808","0",""
"898360","Santa Croce","44.2206116380485","12.21442672953","0",""
"898400","Raven.-Calcinaro","44.1662486845959","12.2434635121733","0",""
"898440","Martorano","44.1698175738395","12.242823764746","0",""
"898450","Martorano","44.1694511053874","12.2426010332363","0",""
"898470","Martorano Centro","44.1722261941125","12.2427157227723","0",""
"898500","Martini","44.1787759958938","12.2428648930405","0",""
"898510","Martini","44.178541154483","12.2425117402835","0",""
"898520","Borgo Ronta Cap.","44.1851615241684","12.2426684167618","0",""
"898530","Borgo Ronta Cap.","44.1850863989619","12.2426158960435","0",""
"898540","Ronta","44.1920088511866","12.2428223566713","0",""
"898550","Ronta","44.1919045956897","12.2424436317073","0",""
"898620","Cerchias.Martino","44.2055064990912","12.2426037278918","0",""
"898630","Cerchias.Martino","44.2054042329861","12.2424428364758","0",""
"898660","S.Martino Fiume","44.2106355017539","12.2425316781622","0",""
"898670","S.Martino Fiume","44.210337327527","12.2424519257795","0",""
"898720","C. Congregazione","44.2197128357529","12.2425356030027","0",""
"898730","C. Congregazione","44.2197743083775","12.2424232106461","0",""
"898740","Pozzo","44.2234106841675","12.2425224288814","0",""
"898800","Confine-Rovescio","44.2271822707075","12.2897494675727","0",""
"898840","Aeroporto","44.2228308447716","12.2967945722441","0",""
"898860","Confine-Cervese","44.2203212612994","12.3008030063859","0",""
"898900","Confine,3200","44.2145335343378","12.3105865217954","0",""
"898940","Confine-Bollana","44.2070282214581","12.3226034460981","0",""
